%time,field.header.seq,field.header.stamp,field.header.frame_id,field.fix,field.NumSat,field.latitude,field.longitude,field.altitude,field.speed,field.ground_course,field.covariance
1511903668434909452,64,1511903668433214902,/gps,1,12,40.2675083333,-111.634834833,1491.2,0.997507777777,5.81124827744,0.5625
1511903668634539244,65,1511903668633001089,/gps,1,12,40.26751,-111.634835833,1491.2,1.05615444444,5.80985201404,0.5625
1511903668836634869,66,1511903668833235979,/gps,1,12,40.2675115,-111.6348375,1491.2,1.13177777778,5.66062636299,0.5625
1511903669047439504,67,1511903669046006917,/gps,1,12,40.2675131667,-111.634839333,1491.2,1.14618222222,5.63025763401,0.5184
1511903669236561483,68,1511903669233552932,/gps,1,12,40.2675148333,-111.634841167,1491.2,1.16007222222,5.60512489278,0.5184
1511903669435628254,69,1511903669432682037,/gps,1,12,40.2675163333,-111.634842833,1491.2,0.965612222221,5.53984957876,0.5184
1511903669636095025,70,1511903669633418083,/gps,1,12,40.2675175,-111.634844667,1491.2,1.15492777778,5.41139334581,0.5184
1511903669835099348,71,1511903669833370923,/gps,1,12,40.2675188333,-111.634846667,1491.2,1.13949444444,5.39498725084,0.5184
1511903670037928775,72,1511903670034544944,/gps,1,12,40.2675201667,-111.634848833,1491.2,1.14978333333,5.33564605627,0.5184
1511903670237793358,73,1511903670234401941,/gps,1,12,40.2675213333,-111.634851333,1491.2,1.44558888889,5.31190957844,0.5184
1511903670439859816,74,1511903670436899900,/gps,1,12,40.2675225,-111.6348545,1491.1,1.58294555555,5.23424242673,0.5184
1511903670638897837,75,1511903670635346889,/gps,1,12,40.2675231667,-111.634857833,1491.1,1.33241111111,5.08728570371,0.5184
1511903670843918306,76,1511903670839838981,/gps,1,12,40.2675233333,-111.634860833,1491.2,1.35967666667,4.94189977702,0.5184
1511903671051666483,77,1511903671048387050,/gps,1,12,40.2675235,-111.634863667,1491.1,1.18579444444,4.81920313061,0.5184
1511903671234297837,78,1511903671232716083,/gps,1,12,40.2675236667,-111.634866833,1491.1,1.36687888889,4.87767166055,0.5184
1511903671437259139,79,1511903671435770034,/gps,1,12,40.2675238333,-111.6348705,1491.2,1.4816,4.77993322244,0.5184
1511903671636926899,80,1511903671635247945,/gps,1,12,40.267524,-111.634874167,1491.2,1.48057111111,4.78743813822,0.5184
1511903671836583045,81,1511903671835481882,/gps,1,12,40.267524,-111.634877833,1491.2,1.52327,4.6813221197,0.5184
1511903672038561639,82,1511903672035485982,/gps,1,12,40.2675236667,-111.634881333,1491.3,1.48417222222,4.58375821451,0.5184
1511903672236964034,83,1511903672235801935,/gps,1,12,40.267523,-111.634885,1491.3,1.49600444444,4.45844357422,0.5184
1511903672439677993,84,1511903672436491012,/gps,1,12,40.2675221667,-111.634888333,1491.4,1.51555333333,4.40172037353,0.5184
1511903672632774503,85,1511903672631141901,/gps,1,12,40.2675211667,-111.634891833,1491.4,1.73007666667,4.32073709624,0.5184
1511903672839071638,86,1511903672835947036,/gps,1,12,40.2675201667,-111.634895333,1491.5,1.43787222222,4.28548144535,0.5184
1511903673048698930,87,1511903673045656919,/gps,1,12,40.2675186667,-111.634898667,1491.5,1.55516555555,4.22247505935,0.5184
1511903673235786899,88,1511903673234438896,/gps,1,12,40.2675168333,-111.634901667,1491.5,1.51915444444,4.10239640681,0.5184
1511903673437032107,89,1511903673435220003,/gps,1,12,40.2675153333,-111.6349045,1491.6,1.23723888889,4.1376520577,0.5184
1511903673635441117,90,1511903673633923053,/gps,1,12,40.2675138333,-111.634907667,1491.5,1.50423555555,4.15126562587,0.5184
1511903673836842784,91,1511903673834312915,/gps,1,12,40.2675123333,-111.634911,1491.5,1.47902777778,4.20973415581,0.5184
1511903674034165857,92,1511903674031150102,/gps,1,12,40.2675108333,-111.634914,1491.5,1.34321444444,4.23347063364,0.5184
1511903674236692263,93,1511903674234148025,/gps,1,12,40.2675093333,-111.634916167,1491.4,1.13795111111,4.20118204248,0.5184
1511903674437095283,94,1511903674434592008,/gps,1,12,40.2675078333,-111.634918333,1491.4,1.26141777778,4.1763983671,0.5184
1511903674637773981,95,1511903674634552955,/gps,1,12,40.2675061667,-111.634920833,1491.2,1.29331333333,4.15109109294,0.5184
1511903674840807731,96,1511903674835825920,/gps,1,12,40.2675048333,-111.634923333,1491.1,1.27273555555,4.17535116955,0.5184
1511903675051762002,97,1511903675046673059,/gps,1,12,40.2675033333,-111.634925833,1491.1,1.44816111111,4.08354685089,0.5184
1511903675239243408,98,1511903675236257076,/gps,1,12,40.2675013333,-111.6349285,1491.0,1.48262888889,4.04776760123,0.5184
1511903675435045387,99,1511903675432260990,/gps,1,12,40.2674991667,-111.634930833,1490.9,1.32623777778,3.96783152148,0.5184
1511903675638292158,100,1511903675635350942,/gps,1,12,40.267497,-111.634933,1490.8,1.32212222222,3.90273074038,0.5041
1511903675839108981,101,1511903675835740089,/gps,1,12,40.2674948333,-111.6349355,1490.7,1.63336111111,3.91494804515,0.5041
1511903676037733825,102,1511903676035423994,/gps,1,12,40.2674921667,-111.634938333,1490.6,2.08298555555,3.84478580922,0.5041
1511903676236872835,103,1511903676235518932,/gps,1,12,40.2674895,-111.634940833,1490.7,1.64570777778,3.82506358867,0.5041
1511903676438003668,104,1511903676436475992,/gps,1,12,40.2674871667,-111.634942833,1490.7,1.29382777778,3.7864918122,0.5041
1511903676636714553,105,1511903676635260105,/gps,1,12,40.267485,-111.634944167,1490.6,1.33601222222,3.73989152117,0.5041
1511903676833074397,106,1511903676831321001,/gps,1,12,40.2674828333,-111.6349455,1490.5,1.39774555555,3.7179003726,0.5041
1511903677047003460,107,1511903677045557022,/gps,1,12,40.2674805,-111.634947333,1490.4,1.40494777778,3.77968502812,0.5041
1511903677236050074,108,1511903677234472036,/gps,1,12,40.2674781667,-111.634949333,1490.4,1.53510222222,3.73535366512,0.5041
1511903677436262834,109,1511903677434657096,/gps,1,12,40.2674755,-111.634950833,1490.3,1.58140222222,3.66082810606,0.5041
1511903677635160647,110,1511903677633877038,/gps,1,12,40.267473,-111.6349525,1490.2,1.34527222222,3.66571502796,0.5041
1511903677835496116,111,1511903677834039926,/gps,1,12,40.2674708333,-111.634954167,1490.2,1.33858444444,3.6992253496,0.5041
1511903678035313459,112,1511903678033689022,/gps,1,12,40.2674685,-111.634955833,1490.2,1.50166333333,3.66344609994,0.5041
1511903678231870855,113,1511903678230547904,/gps,1,12,40.2674661667,-111.634957333,1490.1,1.42192444444,3.62749231735,0.5041
1511903678436147574,114,1511903678434521913,/gps,1,12,40.2674636667,-111.634958333,1490.0,1.48520111111,3.53237187311,0.5041
1511903678636466688,115,1511903678634408950,/gps,1,12,40.2674608333,-111.634959,1489.9,1.53921777778,3.47599773827,0.5041
1511903678836636948,116,1511903678834408044,/gps,1,12,40.2674583333,-111.634959667,1489.8,1.33498333333,3.43410983622,0.5041
1511903679046957521,117,1511903679045913934,/gps,1,12,40.2674556667,-111.634960333,1489.7,1.53355888889,3.44370914711,0.5041
1511903679236805021,118,1511903679235378026,/gps,1,12,40.2674531667,-111.634961,1489.6,1.37099444444,3.44039302153,0.5041
1511903679436199292,119,1511903679435015916,/gps,1,12,40.2674506667,-111.634961333,1489.5,1.38282666667,3.39187286833,0.5041
1511903679633360438,120,1511903679631073951,/gps,1,12,40.2674483333,-111.634962,1489.5,1.35247444444,3.32904101525,0.5041
1511903679835824084,121,1511903679834049940,/gps,1,12,40.267446,-111.634962333,1489.5,1.41780888889,3.31228585443,0.5776
1511903680040877729,122,1511903680036489009,/gps,1,12,40.2674436667,-111.634963,1489.5,1.25936,3.3431781822,0.5776
1511903680237982938,123,1511903680234880924,/gps,1,12,40.2674413333,-111.634963667,1489.4,1.49137444444,3.34684337362,0.5776
1511903680436500958,124,1511903680434982061,/gps,1,12,40.2674385,-111.634964167,1489.4,1.54127555555,3.33794219444,0.5776
1511903680638237833,125,1511903680635178089,/gps,1,12,40.267436,-111.634964333,1489.4,1.02528777778,3.27266688041,0.5776
1511903680839181323,126,1511903680835736036,/gps,1,12,40.2674343333,-111.634963833,1489.4,0.824139999999,3.07701547127,0.5776
1511903681047118718,127,1511903681044389009,/gps,1,12,40.2674325,-111.6349635,1489.4,1.13126333333,3.15572982053,0.5776
1511903681236971843,128,1511903681233808994,/gps,1,12,40.2674301667,-111.634963167,1489.4,1.25524444444,3.07910986637,0.5776
1511903681440024812,129,1511903681434958934,/gps,1,12,40.2674276667,-111.634962833,1489.4,1.39980333333,3.09551596134,0.5776
1511903681641320229,130,1511903681637021064,/gps,1,12,40.267425,-111.6349625,1489.4,1.39260111111,3.03826916187,0.5776
1511903681835321999,131,1511903681833683967,/gps,1,12,40.2674225,-111.634961667,1489.3,1.38694222222,2.94559217859,0.5776
1511903682035351843,132,1511903682033721923,/gps,1,12,40.26742,-111.634961,1489.3,1.25215777778,2.9131290545,0.5776
1511903682235855801,133,1511903682234076023,/gps,1,12,40.2674175,-111.634960333,1489.3,1.33807,2.93372393968,0.5776
1511903682434682572,134,1511903682433175086,/gps,1,12,40.267415,-111.634959667,1489.3,1.35041666667,2.90265707899,0.5776
1511903682635517520,135,1511903682633841991,/gps,1,12,40.2674125,-111.634959333,1489.2,1.35453222222,2.95554055533,0.5041
1511903682836346634,136,1511903682834604978,/gps,1,12,40.26741,-111.634958667,1489.1,1.32418,2.94279965179,0.5041
1511903683051428874,137,1511903683050211906,/gps,1,12,40.2674073333,-111.634957833,1489.0,1.39311555555,2.88415658892,0.5041
1511903683237271686,138,1511903683234352111,/gps,1,12,40.2674045,-111.634957,1488.9,1.28919777778,2.90108628266,0.5041
1511903683436504863,139,1511903683434655904,/gps,1,12,40.2674018333,-111.634955833,1488.8,1.45896444444,2.87071755368,0.5041
1511903683636335228,140,1511903683634540081,/gps,1,12,40.2673988333,-111.634954667,1488.8,1.64262111111,2.86495796715,0.5041
1511903683836734551,141,1511903683835110902,/gps,1,12,40.2673961667,-111.634953167,1488.7,1.35556111111,2.86024557817,0.5041
1511903684037251999,142,1511903684035198926,/gps,1,12,40.2673935,-111.634951667,1488.6,1.4353,2.80491864088,0.5041
1511903684237708353,143,1511903684235970020,/gps,1,12,40.267391,-111.63495,1488.5,1.34887333333,2.79374853367,0.5041
1511903684437164394,144,1511903684435947895,/gps,1,12,40.2673885,-111.634948167,1488.5,1.32983888889,2.80788570061,0.5041
1511903684637246738,145,1511903684636014938,/gps,1,12,40.2673856667,-111.6349465,1488.4,1.61432666667,2.7981118568,0.5041
1511903684837153300,146,1511903684835913896,/gps,1,12,40.2673828333,-111.6349445,1488.3,1.46925333333,2.78467282156,0.5041
1511903685049741894,147,1511903685046444892,/gps,1,12,40.2673803333,-111.6349425,1488.3,1.45382,2.72969495012,0.5041
1511903685239847779,148,1511903685236402034,/gps,1,12,40.267378,-111.6349405,1488.2,1.26090333333,2.66965562385,0.5041
1511903685438700748,149,1511903685436234951,/gps,1,12,40.2673758333,-111.6349385,1488.1,1.32726666667,2.66092897759,0.5041
1511903685638493092,150,1511903685636059045,/gps,1,12,40.2673735,-111.6349365,1488.0,1.46205111111,2.68431638957,0.5041
1511903685836788456,151,1511903685834703922,/gps,1,12,40.2673706667,-111.634935,1488.0,1.65805444444,2.71136899297,0.5041
1511903686037832362,152,1511903686035630941,/gps,1,12,40.2673681667,-111.634933333,1488.0,1.43684333333,2.68047666521,0.5041
1511903686237765071,153,1511903686235622882,/gps,1,12,40.267366,-111.634931833,1487.9,1.36122,2.61083802806,0.5041
1511903686434612727,154,1511903686432526111,/gps,1,12,40.2673641667,-111.634930333,1487.9,1.28662555555,2.58151649662,0.5041
1511903686638038196,155,1511903686636046886,/gps,1,12,40.267362,-111.634929333,1487.9,1.47851333333,2.62724412303,0.5041
1511903686837732570,156,1511903686835726976,/gps,1,12,40.2673595,-111.634928,1487.9,1.54950666667,2.65796191786,0.5041
1511903687051869550,157,1511903687049830913,/gps,1,12,40.267357,-111.634926333,1487.9,1.52944333333,2.62951305105,0.5041
1511903687238237362,158,1511903687235972881,/gps,1,12,40.2673548333,-111.634924667,1487.9,1.32057888889,2.60961629758,0.5041
1511903687439030747,159,1511903687436985969,/gps,1,12,40.2673526667,-111.634923,1487.9,1.30874666667,2.57174265281,0.5041
1511903687639074914,160,1511903687636841058,/gps,1,12,40.2673508333,-111.634921167,1487.9,1.28508222222,2.52566596056,0.5041
1511903687834778768,161,1511903687832767963,/gps,1,12,40.2673488333,-111.634919333,1487.9,1.35041666667,2.50576920709,0.5041
1511903688038464757,162,1511903688036452054,/gps,1,12,40.2673466667,-111.6349175,1487.9,1.48468666667,2.50751453634,0.5041
1511903688238126893,163,1511903688235984086,/gps,1,12,40.2673445,-111.634915333,1487.9,1.41575111111,2.45498012586,0.5041
1511903688441288455,164,1511903688438838958,/gps,1,12,40.2673423333,-111.634912833,1487.9,1.51606777778,2.42670579197,0.5041
1511903688639014080,165,1511903688636270046,/gps,1,12,40.2673401667,-111.6349105,1487.9,1.49960555555,2.41640834939,0.5041
1511903688838554341,166,1511903688836056947,/gps,1,12,40.2673381667,-111.634908167,1487.9,1.36585,2.42862565415,0.5041
1511903689053103559,167,1511903689049643039,/gps,1,12,40.267336,-111.634905667,1487.9,1.51915444444,2.43473430653,0.5041
1511903689235899861,168,1511903689231530904,/gps,1,12,40.2673338333,-111.634903167,1487.9,1.54899222222,2.41501208598,0.5041
1511903689438332257,169,1511903689435971021,/gps,1,12,40.2673318333,-111.634900833,1487.9,1.389,2.38970481183,0.5041
1511903689638900382,170,1511903689636208057,/gps,1,12,40.2673298333,-111.634898333,1488.0,1.39260111111,2.37801110584,0.5041
1511903689838512882,171,1511903689835985898,/gps,1,12,40.267328,-111.634895833,1488.0,1.47851333333,2.37836017169,0.5041
1511903690036843403,172,1511903690035114049,/gps,1,12,40.2673258333,-111.634893333,1488.0,1.42706888889,2.41344128966,0.5041
1511903690237700590,173,1511903690235317945,/gps,1,12,40.2673236667,-111.634891,1488.1,1.54436222222,2.41082329578,0.5041
1511903690438428402,174,1511903690436069965,/gps,1,12,40.2673215,-111.634888333,1488.2,1.57522888889,2.37783657292,0.5041
1511903690637736892,175,1511903690633163928,/gps,1,12,40.2673196667,-111.634885833,1488.1,1.30308777778,2.38028003387,0.5041
1511903690843835329,176,1511903690840961933,/gps,1,12,40.267318,-111.634883667,1488.1,1.42243888889,2.38638868625,0.5041
1511903691054196267,177,1511903691050955057,/gps,1,12,40.2673163333,-111.634881333,1488.1,1.35298888889,2.37068072298,0.5041
1511903691239147673,178,1511903691236166000,/gps,1,12,40.2673146667,-111.634879,1488.1,1.44353111111,2.38446882407,0.5041
1511903691437494860,179,1511903691435825109,/gps,1,12,40.2673128333,-111.634876833,1488.1,1.35453222222,2.39406813496,0.5041
1511903691636967517,180,1511903691635541915,/gps,1,12,40.2673111667,-111.634874667,1488.1,1.47388333333,2.36649193278,0.5041
1511903691839846058,181,1511903691836992979,/gps,1,12,40.2673093333,-111.634872,1488.0,1.43581444444,2.31448112107,0.5041
1511903692034959652,182,1511903692032273054,/gps,1,12,40.2673071667,-111.634869333,1488.1,1.46205111111,2.34153372448,0.5041
1511903692236530120,183,1511903692235126972,/gps,1,12,40.2673048333,-111.634866667,1488.1,1.69921,2.37713844122,0.5041
1511903692438770485,184,1511903692437645912,/gps,1,12,40.2673025,-111.634863833,1488.1,1.60661,2.35793981944,0.5041
1511903692636403610,185,1511903692635090112,/gps,1,12,40.2673003333,-111.634861,1488.2,1.52944333333,2.32442949781,0.5041
1511903692835312933,186,1511903692834012985,/gps,1,12,40.2672986667,-111.634858333,1488.2,1.51503888889,2.25758338745,0.5041
1511903693050695276,187,1511903693049384117,/gps,1,12,40.267297,-111.6348555,1488.1,1.55928111111,2.23402144255,0.5041
1511903693237951578,188,1511903693235235929,/gps,1,12,40.2672955,-111.634852667,1488.1,1.51040888889,2.19510060023,0.5041
1511903693435535380,189,1511903693432449102,/gps,1,12,40.267294,-111.634849833,1488.0,1.59014777778,2.16892066145,0.5041
1511903693636465589,190,1511903693635117053,/gps,1,12,40.2672923333,-111.634847167,1487.9,1.54744888889,2.21098309643,0.5041
1511903693838687724,191,1511903693836534976,/gps,1,12,40.2672906667,-111.6348445,1488.0,1.49806222222,2.19422793561,0.5041
1511903694037954339,192,1511903694034828901,/gps,1,12,40.267289,-111.634841833,1488.0,1.56905555555,2.1879447503,0.5041
1511903694237751474,193,1511903694234705924,/gps,1,12,40.2672871667,-111.634839,1488.1,1.60815333333,2.18899194785,0.5041
1511903694437684963,194,1511903694435621976,/gps,1,12,40.2672855,-111.634836,1488.1,1.54899222222,2.16769893098,0.5041
1511903694638056578,195,1511903694635076045,/gps,1,12,40.267284,-111.634833,1488.0,1.62770222222,2.18829381615,0.5041
1511903694834549182,196,1511903694833359003,/gps,1,12,40.2672825,-111.63483,1488.1,1.60198,2.11708438267,0.5041
1511903695050430588,197,1511903695048145055,/gps,1,12,40.2672815,-111.634826833,1488.0,1.43941555555,2.05041280524,0.5041
1511903695246235640,198,1511903695235179901,/gps,1,12,40.2672805,-111.6348235,1488.1,1.45742111111,2.03051605177,0.5041
1511903695435860015,199,1511903695434426069,/gps,1,12,40.2672793333,-111.6348205,1488.1,1.42295333333,2.02964338714,0.5041
1511903695635746577,200,1511903695634016990,/gps,1,12,40.2672783333,-111.634817667,1488.1,1.42861222222,2.03156324932,0.5041
1511903695834747932,201,1511903695833525896,/gps,1,12,40.2672768333,-111.6348145,1488.2,1.59992222222,2.04814387722,0.5041
1511903696035186213,202,1511903696033735990,/gps,1,12,40.2672761667,-111.634811333,1488.2,1.33189666667,2.02405833354,0.5041
1511903696236460900,203,1511903696235205888,/gps,1,12,40.267275,-111.634808333,1488.3,1.44764666667,2.06577170266,0.5041
1511903696435698140,204,1511903696434262990,/gps,1,12,40.2672736667,-111.634805667,1488.3,1.34938777778,2.12022597532,0.5041
1511903696636328817,205,1511903696633064031,/gps,1,12,40.2672721667,-111.634803,1488.3,1.45845,2.17799637356,0.5041
1511903696836353452,206,1511903696834681034,/gps,1,12,40.2672705,-111.634800333,1488.3,1.64004888889,2.17485478091,0.5041
1511903697049532046,207,1511903697046575069,/gps,1,12,40.2672688333,-111.634797667,1488.5,1.22180555555,2.19702046241,0.5041
1511903697234921108,208,1511903697233833074,/gps,1,12,40.267267,-111.634795,1488.6,1.49497555555,2.18602488812,0.5041
1511903697435598556,209,1511903697434405088,/gps,1,12,40.2672653333,-111.634792667,1488.6,1.14206666667,2.20696883915,0.5041
1511903697637307775,210,1511903697635494947,/gps,1,12,40.2672638333,-111.634790667,1488.6,1.11171444444,2.28777758351,0.5041
1511903697836993868,211,1511903697835501909,/gps,1,12,40.2672618333,-111.634788667,1488.7,1.50989444444,2.39528986544,0.5041
1511903698036036577,212,1511903698034889936,/gps,1,12,40.26726,-111.6347865,1488.6,1.17139,2.36335034013,0.5041
1511903698237408347,213,1511903698236056089,/gps,1,12,40.2672586667,-111.6347845,1488.7,1.07313111111,2.2987731578,0.5041
1511903698437259441,214,1511903698435868978,/gps,1,12,40.2672573333,-111.634782167,1488.6,1.38334111111,2.28830118229,0.5041
1511903698635925691,215,1511903698634777069,/gps,1,12,40.2672555,-111.634779833,1488.7,1.43941555555,2.33909026352,0.5041
1511903698833455274,216,1511903698831996917,/gps,1,12,40.2672538333,-111.6347775,1488.7,1.35916222222,2.30645260651,0.5041
1511903699049183347,217,1511903699047554969,/gps,1,12,40.267252,-111.634774833,1488.7,1.63336111111,2.33175988066,0.5041
1511903699237215743,218,1511903699235861063,/gps,1,12,40.26725,-111.634772167,1488.8,1.56185333333,2.35985968162,0.5041
1511903699436622982,219,1511903699435357093,/gps,1,12,40.2672483333,-111.634769667,1488.7,1.31749222222,2.31325939059,0.5041
1511903699637208034,220,1511903699635960102,/gps,1,12,40.2672468333,-111.634767167,1488.7,1.2501,2.25496539358,0.5041
1511903699836002513,221,1511903699834796905,/gps,1,12,40.2672455,-111.634764833,1488.7,1.20585777778,2.2572343216,0.5041
1511903700036130222,222,1511903700033910036,/gps,1,12,40.2672438333,-111.6347625,1488.7,1.51246666667,2.28428692501,0.5041
1511903700234100534,223,1511903700230629920,/gps,1,12,40.2672416667,-111.63476,1488.8,1.47748444444,2.35724168774,0.5041
1511903700439092409,224,1511903700435894966,/gps,1,12,40.2672398333,-111.634757833,1488.8,1.27582222222,2.38761041673,0.5041
1511903700636657201,225,1511903700635087966,/gps,1,12,40.267238,-111.634755667,1488.8,1.48571555555,2.42949831878,0.5041
1511903700839304544,226,1511903700835218906,/gps,1,12,40.2672358333,-111.6347535,1488.9,1.28714,2.53456713975,0.5041
1511903701050553034,227,1511903701048497915,/gps,1,12,40.2672338333,-111.634752333,1488.9,1.23569555555,2.61939014139,0.5041
1511903701235272252,228,1511903701233876943,/gps,1,12,40.2672318333,-111.634751,1488.9,1.47902777778,2.65429672643,0.5041
1511903701435028815,229,1511903701433744907,/gps,1,12,40.2672298333,-111.634749667,1489.0,1.16984666667,2.62619692548,0.5041
1511903701633534596,230,1511903701632286071,/gps,1,12,40.2672278333,-111.634748667,1489.0,1.29897222222,2.6443483497,0.5041
1511903701836498502,231,1511903701835247039,/gps,1,12,40.267226,-111.6347475,1489.0,1.27170666667,2.69583556263,0.5041
1511903702036459804,232,1511903702035171031,/gps,1,12,40.2672238333,-111.634746667,1489.1,1.25318666667,2.7337092074,0.5041
1511903702236694179,233,1511903702235272884,/gps,1,12,40.2672218333,-111.634745667,1489.1,1.30257333333,2.74679917679,0.5041
1511903702436555533,234,1511903702435295104,/gps,1,12,40.2672195,-111.6347445,1489.1,1.41317888889,2.73056761475,0.5041
1511903702636451262,235,1511903702635168075,/gps,1,12,40.2672173333,-111.634743167,1489.0,1.28971222222,2.69723182603,0.5041
1511903702836180533,236,1511903702834918022,/gps,1,12,40.2672151667,-111.634741667,1489.0,1.36482111111,2.63230557786,0.5041
1511903703045984023,237,1511903703044681072,/gps,1,12,40.2672123333,-111.634741,1489.1,1.40752,2.58151649662,0.5041
1511903703235885741,238,1511903703234575986,/gps,1,12,40.2672098333,-111.6347425,1489.0,1.27582222222,2.61293242316,0.5041
1511903703439112772,239,1511903703435980081,/gps,1,12,40.2672073333,-111.634741833,1489.0,1.31080444444,2.62375346452,0.5041
1511903703638231366,240,1511903703635518074,/gps,1,12,40.2672046667,-111.634740833,1489.1,1.45433444444,2.68187292861,0.5041
1511903703837183970,241,1511903703835635900,/gps,1,12,40.2672023333,-111.634739833,1489.1,1.24649888889,2.61869200969,0.5041
1511903704037319074,242,1511903704034260034,/gps,1,12,40.2672001667,-111.634738667,1489.2,1.41112111111,2.59914432207,0.5041
1511903704236935793,243,1511903704234046936,/gps,1,12,40.2671976667,-111.6347375,1489.3,1.37665333333,2.60647470493,0.5041
1511903704432713762,244,1511903704431015968,/gps,1,12,40.2671955,-111.634736333,1489.4,1.21871888889,2.68379279079,0.5041
1511903704637233918,245,1511903704634533882,/gps,1,12,40.2671931667,-111.634735667,1489.4,1.34372888889,2.70421314304,0.5041
1511903704835852564,246,1511903704833388090,/gps,1,12,40.2671908333,-111.634734833,1489.4,1.41266444444,2.78310202523,0.5041
1511903705052345480,247,1511903705047559022,/gps,1,12,40.2671885,-111.634734,1489.3,1.10091111111,2.74383211706,0.5041
1511903705239553501,248,1511903705234472036,/gps,1,12,40.2671865,-111.634732667,1489.4,1.23363777778,2.66389603732,0.5041
1511903705438930063,249,1511903705434132099,/gps,1,12,40.2671841667,-111.6347315,1489.5,1.34938777778,2.66337243854,0.5041
1511903705639951261,250,1511903705635050058,/gps,1,12,40.267182,-111.63473,1489.6,1.16367333333,2.62741865595,0.5041
1511903705837319386,251,1511903705832547903,/gps,1,12,40.26718,-111.634729,1489.6,1.19865555555,2.67977853351,0.5041
1511903706039978188,252,1511903706035089969,/gps,1,12,40.2671778333,-111.634727833,1489.7,1.29948666667,2.69112317365,0.5041
1511903706240279021,253,1511903706235610961,/gps,1,12,40.2671756667,-111.634726667,1489.7,1.32212222222,2.68292012617,0.5041
1511903706440597563,254,1511903706435836076,/gps,1,12,40.2671733333,-111.634725,1489.8,1.30103,2.60944176466,0.5041
1511903706645661573,255,1511903706638775110,/gps,1,12,40.2671711667,-111.634723333,1489.8,1.37459555555,2.62898945228,0.5041
1511903706840494438,256,1511903706835927009,/gps,1,12,40.2671686667,-111.6347215,1490.0,1.45279111111,2.61467775241,0.5041
1511903707056584021,257,1511903707051722049,/gps,1,12,40.2671661667,-111.634719667,1490.1,1.35350333333,2.61415415364,0.5041
1511903707232997198,258,1511903707231844902,/gps,1,12,40.267164,-111.634718167,1490.1,1.23569555555,2.67576427623,0.5041
1511903707436689177,259,1511903707434990882,/gps,1,12,40.2671616667,-111.634716833,1490.2,1.38128333333,2.69915168821,0.5041
1511903707637136104,260,1511903707635116100,/gps,1,12,40.2671593333,-111.634715167,1490.2,1.34887333333,2.65185326548,0.5041
1511903707836544437,261,1511903707835191011,/gps,1,12,40.267157,-111.634713667,1490.3,1.36996555555,2.68309465909,0.5041
1511903708037536729,262,1511903708035871982,/gps,1,12,40.2671546667,-111.634712333,1490.3,1.26656222222,2.7143360527,0.5041
1511903708236183760,263,1511903708234733104,/gps,1,12,40.2671525,-111.634711333,1490.3,1.13074888889,2.81015462864,0.5041
1511903708435365166,264,1511903708433674097,/gps,1,12,40.2671501667,-111.634710667,1490.3,1.23981111111,2.88642551695,0.5041
1511903708633867145,265,1511903708631266117,/gps,1,12,40.2671478333,-111.634709833,1490.3,1.25936,2.90283161192,0.5041
1511903708835271208,266,1511903708834007024,/gps,1,12,40.2671456667,-111.634708833,1490.3,1.04432222222,2.89078884008,0.5041
1511903709048328187,267,1511903709046991109,/gps,1,12,40.2671436667,-111.6347075,1490.3,1.23260888889,2.81050369449,0.5041
1511903709235837145,268,1511903709234597921,/gps,1,12,40.2671415,-111.634706333,1490.4,1.11428666667,2.83441470524,0.5041
1511903709438312458,269,1511903709437033891,/gps,1,12,40.2671395,-111.6347055,1490.4,1.11737333333,2.89323230103,0.5041
1511903709636305791,270,1511903709634984970,/gps,1,12,40.2671373333,-111.634705,1490.4,1.08650666667,2.93267674213,0.5041
1511903709835268760,271,1511903709833739995,/gps,1,12,40.2671356667,-111.634704833,1490.4,0.782469999999,3.06287830432,0.5041
1511903710037239853,272,1511903710034184932,/gps,1,12,40.2671345,-111.634705333,1490.4,0.507242222222,3.06287830432,0.5041
1511903710236894749,273,1511903710234297037,/gps,1,12,40.2671333333,-111.634705667,1490.5,0.371428888889,3.06287830432,0.5041
1511903710441601884,274,1511903710438853025,/gps,1,12,40.2671331667,-111.6347065,1490.6,0.581322222222,3.06287830432,0.5041
1511903710637979957,275,1511903710635473012,/gps,1,12,40.2671331667,-111.634707,1490.7,0.0951722222221,3.06287830432,0.5041
1511903710838532093,276,1511903710836294889,/gps,1,12,40.2671335,-111.634706833,1490.8,0.571547777777,3.06287830432,0.5041
1511903711055672822,277,1511903711051175117,/gps,1,12,40.2671345,-111.634706333,1490.7,0.71199111111,1.95564142686,0.5041
1511903711236171884,278,1511903711233941078,/gps,1,12,40.2671355,-111.634705833,1490.8,0.462485555555,1.95564142686,0.5041
1511903711439107353,279,1511903711436727046,/gps,1,12,40.2671366667,-111.6347055,1490.8,0.878156666666,0.875806218651,0.5041
1511903711639193967,280,1511903711636521100,/gps,1,12,40.2671385,-111.634705167,1490.9,1.01345555555,0.366344609994,0.5041
1511903711838853759,281,1511903711836492061,/gps,1,12,40.2671403333,-111.634705,1491.0,0.767036666666,0.276634686441,0.5041
1511903712037953394,282,1511903712035708904,/gps,1,12,40.2671416667,-111.6347045,1491.0,0.520103333333,0.276634686441,0.5041
1511903712238287248,283,1511903712235557079,/gps,1,12,40.2671428333,-111.634704167,1491.0,0.545825555555,0.147131255943,0.5041
1511903712439108238,284,1511903712436768054,/gps,1,12,40.2671441667,-111.634704333,1491.0,0.697586666666,0.0535816080362,0.5041
1511903712636599279,285,1511903712634385108,/gps,1,12,40.2671455,-111.634704333,1491.1,0.577721111111,6.22820743574,0.5041
1511903712843338342,286,1511903712837860107,/gps,1,12,40.2671465,-111.634705,1491.2,0.824654444444,6.04337706796,0.5041
1511903713053306727,287,1511903713051176071,/gps,1,12,40.267148,-111.634705667,1491.3,1.06129888889,6.05402357639,0.5041
1511903713237457456,288,1511903713235354900,/gps,1,12,40.2671501667,-111.634706167,1491.4,1.27582222222,6.08997735898,0.5041
1511903713438839800,289,1511903713436414957,/gps,1,12,40.2671523333,-111.634706833,1491.5,1.22540666667,6.05594343857,0.5041
1511903713639298029,290,1511903713636919021,/gps,1,12,40.2671543333,-111.634707667,1491.7,1.21563222222,6.01702259625,0.5041
1511903713839862612,291,1511903713837640047,/gps,1,12,40.2671565,-111.634708333,1491.7,1.14155222222,6.015277267,0.5041
1511903714035697977,292,1511903714032957077,/gps,1,12,40.2671585,-111.634708833,1491.6,1.01705666667,6.06414648605,0.5041
1511903714239230685,293,1511903714236386060,/gps,1,12,40.2671608333,-111.634708833,1491.6,1.47285444444,6.16537558267,0.5041
1511903714439973341,294,1511903714437288999,/gps,1,12,40.2671636667,-111.6347095,1491.6,1.68737777778,6.09276988579,0.5041
1511903714638971466,295,1511903714636193990,/gps,1,12,40.2671668333,-111.634710333,1491.7,1.64930888889,6.04739132524,0.5041
1511903714842649070,296,1511903714838460922,/gps,1,12,40.2671691667,-111.634711333,1491.8,0.992363333332,5.96256832359,0.5041
1511903715052828601,297,1511903715050717115,/gps,1,12,40.2671711667,-111.634712333,1491.9,1.20997333333,5.98822466359,0.5041
1511903715238739487,298,1511903715236305952,/gps,1,12,40.2671735,-111.634713,1491.9,1.36224888889,6.03255602659,0.5041
1511903715435351830,299,1511903715432787895,/gps,1,12,40.2671758333,-111.6347135,1491.9,1.21511777778,6.040933607,0.5041
1511903715638798393,300,1511903715636243104,/gps,1,12,40.2671785,-111.634714167,1491.9,1.59992222222,6.01283380605,0.5041
1511903715839970841,301,1511903715836785078,/gps,1,12,40.2671813333,-111.634715167,1492.0,1.39002888889,6.03325415829,0.5041
1511903716038293445,302,1511903716035908937,/gps,1,12,40.2671838333,-111.634716,1492.0,1.32057888889,5.98927186114,0.5041
1511903716239533601,303,1511903716236236095,/gps,1,12,40.2671861667,-111.634717,1492.1,1.34630111111,6.00114010006,0.5041
1511903716438519070,304,1511903716436472892,/gps,1,12,40.2671885,-111.634717833,1492.1,1.34321444444,6.00916861462,0.5041
1511903716638505684,305,1511903716635658979,/gps,1,12,40.2671908333,-111.6347185,1492.1,1.36173444444,6.01405553652,0.5041
1511903716835917351,306,1511903716833136081,/gps,1,12,40.2671933333,-111.634719333,1492.2,1.58603222222,6.00585248904,0.5041
1511903717052931673,307,1511903717050324916,/gps,1,12,40.2671958333,-111.634720667,1492.2,1.46925333333,5.93656291773,0.5041
1511903717238450059,308,1511903717235508918,/gps,1,12,40.2671983333,-111.634722167,1492.2,1.45176222222,5.89415141691,0.5041
1511903717439604017,309,1511903717436420917,/gps,1,12,40.2672006667,-111.6347235,1492.2,1.35350333333,5.9100339131,0.5041
1511903717638784902,310,1511903717635993003,/gps,1,12,40.2672031667,-111.6347245,1492.2,1.25112888889,5.96239379066,0.5041
1511903717838992923,311,1511903717836323976,/gps,1,12,40.2672055,-111.634725333,1492.2,1.68840666667,5.92085495447,0.5041
1511903718040034329,312,1511903718036828994,/gps,1,12,40.2672081667,-111.634726167,1492.1,1.35916222222,5.99188985502,0.5041
1511903718235965475,313,1511903718232963085,/gps,1,12,40.2672105,-111.634726833,1492.1,1.31183333333,5.94406783352,0.5041
1511903718439333652,314,1511903718437031030,/gps,1,12,40.2672126667,-111.634728,1492.0,1.34835888889,5.93883184576,0.5041
1511903718638559485,315,1511903718635885953,/gps,1,12,40.2672146667,-111.634729167,1492.0,1.25833111111,5.93569025311,0.5041
1511903718840443912,316,1511903718836637020,/gps,1,12,40.2672168333,-111.634730167,1492.0,1.32520888889,5.93045426535,0.5041
1511903719052607506,317,1511903719050128936,/gps,1,12,40.267219,-111.634731333,1492.0,1.43375666667,5.93167599583,0.5041
1511903719237538183,318,1511903719236161947,/gps,1,12,40.2672213333,-111.634732333,1491.9,1.28611111111,5.99398425012,0.5041
1511903719437744902,319,1511903719435911893,/gps,1,12,40.2672236667,-111.634733667,1491.9,1.55053555555,5.8442350003,0.5041
1511903719633793391,320,1511903719632239103,/gps,1,12,40.2672261667,-111.634735,1491.9,1.38797111111,5.94110077379,0.5041
1511903719836718027,321,1511903719835298061,/gps,1,12,40.2672283333,-111.634735667,1491.8,1.24752777778,5.98752653189,0.5041
1511903720041175110,322,1511903720037853002,/gps,1,12,40.2672306667,-111.634736333,1491.7,1.34475777778,6.0395373436,0.5041
1511903720240505735,323,1511903720237467050,/gps,1,12,40.2672331667,-111.634736833,1491.7,1.49960555555,6.07880725177,0.5041
1511903720437212297,324,1511903720435540914,/gps,1,12,40.2672358333,-111.6347375,1491.7,1.47439777778,6.10795425028,0.5041
1511903720639279589,325,1511903720635937929,/gps,1,12,40.2672381667,-111.634738,1491.7,1.24855666667,6.10917598076,0.5041
1511903720839002974,326,1511903720835798978,/gps,1,12,40.2672405,-111.6347385,1491.6,1.30566,6.08805749681,0.5041
1511903721045708182,327,1511903721044501066,/gps,1,12,40.2672426667,-111.634739167,1491.6,1.17139,6.09032642483,0.5041
1511903721238840422,328,1511903721235826015,/gps,1,12,40.2672448333,-111.634739667,1491.5,1.25575888889,6.09870400524,0.5041
1511903721436804745,329,1511903721435441970,/gps,1,12,40.267247,-111.634740167,1491.5,1.36790777778,6.14582789505,0.5041
1511903721635919745,330,1511903721634655952,/gps,1,12,40.267249,-111.6347405,1491.5,1.12663333333,6.11964795627,0.5041
1511903721836535890,331,1511903721835427999,/gps,1,12,40.267251,-111.634741,1491.6,1.35247444444,6.10376546007,0.5041
1511903722035837870,332,1511903722034382104,/gps,1,12,40.2672535,-111.634741833,1491.6,1.39980333333,6.06048129463,0.5041
1511903722236079797,333,1511903722234870910,/gps,1,12,40.2672556667,-111.6347425,1491.6,1.17087555555,6.08578856878,0.5041
1511903722434552765,334,1511903722433351993,/gps,1,12,40.2672578333,-111.634743,1491.6,1.31183333333,6.10236919667,0.5041
1511903722636840369,335,1511903722635564088,/gps,1,12,40.2672605,-111.634743667,1491.6,1.67194444444,6.13448325491,0.5041
1511903722836979900,336,1511903722835485935,/gps,1,12,40.2672631667,-111.634744333,1491.6,1.36687888889,6.09922760402,0.5041
1511903723051689952,337,1511903723048209905,/gps,1,12,40.2672655,-111.634745,1491.6,1.23003666667,6.07671285667,0.5041
1511903723238541827,338,1511903723236232042,/gps,1,12,40.2672678333,-111.634745833,1491.6,1.19402555555,6.02766910469,0.5041
1511903723436065317,339,1511903723434760093,/gps,1,12,40.2672698333,-111.634746167,1491.6,1.17550555555,6.11022317831,0.5041
1511903723635984327,340,1511903723634298086,/gps,1,12,40.2672721667,-111.634746333,1491.6,1.50526444444,6.17357863015,0.5041
1511903723837538910,341,1511903723835592985,/gps,1,12,40.2672751667,-111.634746333,1491.7,1.56802666667,6.22332051384,0.5041
1511903724035783702,342,1511903724034457921,/gps,1,12,40.267278,-111.634746333,1491.7,1.57368555555,0.0118682389136,0.5041
1511903724236035525,343,1511903724234750032,/gps,1,12,40.2672811667,-111.634746333,1491.8,1.73985111111,6.25316564405,0.5041
1511903724437475473,344,1511903724435867071,/gps,1,12,40.2672846667,-111.634746833,1492.0,1.95231666666,6.24548619534,0.5041
1511903724636786775,345,1511903724635062932,/gps,1,12,40.2672885,-111.634746667,1492.2,2.35049666666,0.0354301838155,0.5041
1511903724836853285,346,1511903724835263013,/gps,1,12,40.2672935,-111.634746,1492.4,2.99406666666,0.0733038285838,0.5041
1511903725049413441,347,1511903725046041011,/gps,1,12,40.2672995,-111.634745,1492.9,3.51725666666,0.116238928183,0.5041
1511903725236439691,348,1511903725234790086,/gps,1,12,40.2673056667,-111.634744167,1493.1,3.35726444444,0.0808087443673,0.5041
1511903725436593754,349,1511903725433486938,/gps,1,12,40.2673113333,-111.634744,1493.3,3.04859777778,0.0352556508903,0.5041
1511903725634903649,350,1511903725633605957,/gps,1,12,40.2673148333,-111.634744167,1493.3,1.35298888889,0.0352556508903,0.5625
1511903725836699639,351,1511903725835114002,/gps,1,12,40.2673173333,-111.6347445,1493.3,1.54744888889,0.0010471975512,0.5625
1511903726036383962,352,1511903726034744024,/gps,1,12,40.2673198333,-111.634745167,1493.4,1.59529222222,6.17759288743,0.5625
1511903726234948753,353,1511903726233679056,/gps,1,12,40.2673223333,-111.6347455,1493.4,1.32572333333,6.14862042185,0.5625
1511903726432811149,354,1511903726429908037,/gps,1,12,40.2673246667,-111.634746167,1493.4,1.44456,6.05227824714,0.5625
1511903726634130368,355,1511903726632647037,/gps,1,12,40.267327,-111.634747167,1493.4,1.34372888889,5.99991836958,0.5625
1511903726835613909,356,1511903726834279060,/gps,1,12,40.267329,-111.634747833,1493.5,1.24186888889,6.04547146306,0.5625
1511903727035103493,357,1511903727033670902,/gps,1,12,40.267331,-111.6347485,1493.5,1.41986666667,6.06519368361,0.5625
1511903727234900107,358,1511903727233597993,/gps,1,12,40.2673333333,-111.6347495,1493.6,1.50423555555,6.04669319353,0.5625
1511903727437203545,359,1511903727436045885,/gps,1,12,40.2673358333,-111.6347505,1493.6,1.40494777778,6.00864501584,0.5625
1511903727636829742,360,1511903727633738040,/gps,1,12,40.2673378333,-111.634751667,1493.6,1.12869111111,5.95890313216,0.5625
1511903727832963805,361,1511903727829801082,/gps,1,12,40.2673398333,-111.634753,1493.6,1.23672444444,5.90043460222,0.5625
1511903728035504690,362,1511903728033982992,/gps,1,12,40.2673421667,-111.634754667,1493.7,1.40186111111,5.82329104928,0.5625
1511903728235222398,363,1511903728234105110,/gps,1,12,40.2673445,-111.634756,1493.7,1.57728666667,5.9280108044,0.5625
1511903728436450315,364,1511903728434757947,/gps,1,12,40.2673466667,-111.634757167,1493.8,1.26501888889,5.90165633269,0.5625
1511903728634983023,365,1511903728633533000,/gps,1,12,40.2673488333,-111.634758333,1493.8,1.21769,5.92382201419,0.5625
1511903728836870940,366,1511903728835340976,/gps,1,12,40.2673506667,-111.634759333,1493.8,1.14618222222,5.8850757048,0.5625
1511903729035814065,367,1511903729033931970,/gps,1,12,40.2673525,-111.63476,1493.7,1.16624555555,5.96605898209,0.5625
1511903729231677033,368,1511903729229803085,/gps,1,12,40.2673548333,-111.634760667,1493.7,1.43941555555,5.98019614903,0.5625
1511903729436626148,369,1511903729434663057,/gps,1,12,40.2673571667,-111.634761333,1493.7,1.37562444444,6.00829594999,0.5625
1511903729634584325,370,1511903729633443117,/gps,1,12,40.2673595,-111.634762167,1493.7,1.33395444444,5.9931115855,0.5625
1511903729836938960,371,1511903729835275888,/gps,1,12,40.2673621667,-111.634762667,1493.7,1.35196,6.02540017666,0.5625
1511903730040486773,372,1511903730036458969,/gps,1,12,40.2673645,-111.634763167,1493.8,1.16058666667,6.07933085055,0.5625
1511903730240219585,373,1511903730235677003,/gps,1,12,40.2673668333,-111.634763333,1493.8,1.38076888889,6.14076644022,0.5625
1511903730438407398,374,1511903730435606002,/gps,1,12,40.2673695,-111.634763667,1493.8,1.45536333333,6.1676445107,0.5625
1511903730634216512,375,1511903730632245063,/gps,1,12,40.2673721667,-111.634764,1493.9,1.33344,6.14094097314,0.5625
1511903730853910731,376,1511903730849539041,/gps,1,12,40.2673748333,-111.6347645,1493.9,1.59066222222,6.10289279545,0.5041
1511903731035596095,377,1511903731034419059,/gps,1,12,40.2673775,-111.634765167,1493.9,1.40957777778,6.10359092715,0.5041
1511903731236727553,378,1511903731234689950,/gps,1,12,40.26738,-111.634765333,1494.0,1.53355888889,6.15455454131,0.5041
1511903731437716356,379,1511903731435260057,/gps,1,12,40.267383,-111.634765667,1494.1,1.87617888889,6.16101225954,0.5041
1511903731637008074,380,1511903731634618997,/gps,1,12,40.2673866667,-111.6347665,1494.2,2.32940444444,6.15839426566,0.5041
1511903731836529012,381,1511903731834501981,/gps,1,12,40.2673908333,-111.6347675,1494.3,2.27127222222,6.16031412784,0.5041
1511903732035388074,382,1511903732032916069,/gps,1,12,40.267395,-111.634768167,1494.4,2.41583111111,6.19312631778,0.5041
1511903732237693074,383,1511903732234872102,/gps,1,12,40.2673993333,-111.634768833,1494.5,2.35152555555,6.21389573588,0.5041
1511903732437059793,384,1511903732434582948,/gps,1,12,40.2674036667,-111.63477,1494.6,2.51203222222,6.22489131016,0.5041
1511903732637867605,385,1511903732635509014,/gps,1,12,40.2674083333,-111.634771167,1494.6,2.80783777778,6.22733477112,0.5041
1511903732852918751,386,1511903732850567102,/gps,1,12,40.2674136667,-111.6347715,1494.9,3.29450222222,0.00767944870878,0.5041
1511903733036265834,387,1511903733034584045,/gps,1,12,40.2674188333,-111.634771333,1495.2,2.67099555555,0.0106465084372,0.5041
1511903733236695730,388,1511903733235208988,/gps,1,12,40.2674236667,-111.634771667,1495.4,2.85105111111,6.26590654758,0.5041
1511903733432740678,389,1511903733431405067,/gps,1,12,40.2674286667,-111.634771833,1495.8,2.98274888889,0.00750491578358,0.5041
1511903733636929792,390,1511903733635494947,/gps,1,12,40.267433,-111.634771833,1495.9,2.37210333333,6.26538294881,0.5041
1511903733836728021,391,1511903733835402011,/gps,1,12,40.2674376667,-111.634772333,1496.1,3.00589888889,6.24461353071,0.5041
1511903734036724688,392,1511903734035336971,/gps,1,12,40.2674425,-111.634772833,1496.4,2.88912,6.24531166241,0.5041
1511903734236586979,393,1511903734235282897,/gps,1,12,40.2674473333,-111.634773167,1496.6,2.79703444444,6.23466515397,0.5041
1511903734437091250,394,1511903734435817003,/gps,1,12,40.2674526667,-111.634773667,1496.9,3.34491777777,6.22942916622,0.5041
1511903734635735833,395,1511903734634438991,/gps,1,12,40.2674558333,-111.634773833,1496.9,1.50166333333,6.19731510798,0.5625
1511903734846687448,396,1511903734845659971,/gps,1,12,40.2674603333,-111.6347745,1497.3,3.67827777777,6.27742572065,0.5041
1511903735036554896,397,1511903735034498929,/gps,1,12,40.2674685,-111.634774667,1497.9,5.28385888888,0.0539306738866,0.5041
1511903735235504167,398,1511903735233783006,/gps,1,12,40.2674733333,-111.634774833,1498.0,1.71104222222,0.0153588974176,0.5625
1511903735437935989,399,1511903735435265064,/gps,1,12,40.2674746667,-111.634778333,1498.2,1.32315111111,6.13134166226,0.5625
1511903735637080677,400,1511903735634586095,/gps,1,12,40.2674761667,-111.634781,1498.2,1.39980333333,6.0173716621,0.5625
1511903735837040156,401,1511903735835048913,/gps,1,12,40.2674778333,-111.634782667,1498.2,1.34064222222,5.96989870645,0.5625
1511903736036185312,402,1511903736034168958,/gps,1,12,40.2674798333,-111.634784167,1498.2,1.60506666667,5.96466271869,0.5625
1511903736234357864,403,1511903736232079029,/gps,1,12,40.2674818333,-111.634785667,1498.3,1.40391888889,5.94441689937,0.5625
1511903736437308385,404,1511903736435389995,/gps,1,12,40.2674835,-111.634786833,1498.2,1.30720333333,5.92486921175,0.5625
1511903736636124166,405,1511903736634423971,/gps,1,12,40.2674853333,-111.634788,1498.2,1.32469444444,5.98892279529,0.5625
1511903736852410312,406,1511903736850471019,/gps,1,12,40.2674868333,-111.6347885,1498.2,1.08599222222,6.04564599598,0.5625
1511903737037948697,407,1511903737035715103,/gps,1,12,40.2674886667,-111.634789,1498.2,1.49394666667,6.06589181531,0.5625
1511903737238036041,408,1511903737235989093,/gps,1,12,40.2674908333,-111.6347895,1498.1,1.62204333333,6.09957666987,0.5625
1511903737438230884,409,1511903737436139106,/gps,1,12,40.2674926667,-111.634789333,1498.1,1.39568777778,6.07566565912,0.5625
1511903737637942239,410,1511903737635858058,/gps,1,12,40.2674946667,-111.634789833,1498.0,1.34578666667,6.0367448168,0.5625
1511903737838540884,411,1511903737836236953,/gps,1,12,40.2674966667,-111.634790333,1498.0,1.31337666667,6.07287313231,0.5625
1511903738040076978,412,1511903738037484884,/gps,1,12,40.2674986667,-111.6347905,1498.0,1.38025444444,6.13587951831,0.5041
1511903738239123436,413,1511903738237180948,/gps,1,12,40.267501,-111.634791,1497.9,1.71412888889,6.15804519981,0.5041
1511903738439422863,414,1511903738437294960,/gps,1,12,40.2675033333,-111.634791667,1497.9,1.37613888889,6.14373349995,0.5041
1511903738638938853,415,1511903738636876106,/gps,1,12,40.2675051667,-111.634792333,1497.9,1.31389111111,6.18300340812,0.5041
1511903738851795832,416,1511903738848963975,/gps,1,12,40.2675068333,-111.6347925,1497.9,1.20225666667,6.18422513859,0.5041
1511903739036324686,417,1511903739035073995,/gps,1,12,40.2675083333,-111.634792167,1497.9,1.30514555555,0.0970403064109,0.5041
1511903739237823957,418,1511903739236391067,/gps,1,12,40.26751,-111.634792,1498.0,1.19299666667,6.28143997793,0.5041
1511903739437176040,419,1511903739436018943,/gps,1,12,40.2675118333,-111.6347925,1498.0,1.25370111111,6.20586722132,0.5041
1511903739635844582,420,1511903739634764909,/gps,1,12,40.2675136667,-111.6347935,1498.1,1.44147333333,6.1046381247,0.5041
1511903739835808384,421,1511903739834666967,/gps,1,12,40.2675146667,-111.6347945,1498.2,1.16727444444,6.01004127924,0.5041
1511903740037778852,422,1511903740035866975,/gps,1,12,40.2675156667,-111.634796,1498.3,1.08805,5.91980775691,0.5041
1511903740234297967,423,1511903740232548952,/gps,1,12,40.267517,-111.634797167,1498.4,1.45227666667,6.00986674632,0.5041
1511903740438663487,424,1511903740436319112,/gps,1,12,40.2675186667,-111.634798333,1498.6,1.51606777778,5.96832791012,0.5041
1511903740637304269,425,1511903740635390996,/gps,1,12,40.2675201667,-111.634799667,1498.6,1.30926111111,5.85767403554,0.5041
1511903740850500883,426,1511903740848428964,/gps,1,12,40.2675213333,-111.634801,1498.6,1.31286222222,5.76691691444,0.5041
1511903741036885675,427,1511903741035160064,/gps,1,12,40.2675225,-111.634802333,1498.4,1.27273555555,5.77546902777,0.5041
1511903741238780518,428,1511903741236073017,/gps,1,12,40.2675243333,-111.634803,1498.4,1.44610333333,5.96920057475,0.5625
1511903741437991664,429,1511903741435091972,/gps,1,12,40.267526,-111.634803,1498.3,1.52121222222,6.0796799164,0.5625
1511903741632708175,430,1511903741630701065,/gps,1,12,40.267527,-111.634803,1498.1,1.45536333333,6.04826398986,0.5625
1511903741836431404,431,1511903741834722995,/gps,1,12,40.267528,-111.634803333,1497.9,1.36790777778,6.02732003884,0.5625
1511903742036564476,432,1511903742034204959,/gps,1,12,40.267529,-111.634803833,1497.7,1.24804222222,5.95576153951,0.5625
1511903742238437758,433,1511903742234910011,/gps,1,12,40.26753,-111.634804667,1497.6,1.22849333333,5.90217993147,0.5625
1511903742440779997,434,1511903742436414957,/gps,1,12,40.2675311667,-111.6348055,1497.6,1.26501888889,5.91963322399,0.5625
1511903742636643487,435,1511903742634327888,/gps,1,12,40.2675328333,-111.634806333,1497.5,1.39774555555,5.96466271869,0.5625
1511903742837452966,436,1511903742833930969,/gps,1,12,40.2675346667,-111.634807667,1497.5,1.57883,5.96431365284,0.5625
1511903743032862236,437,1511903743030762910,/gps,1,12,40.2675366667,-111.634809,1497.5,1.41215,5.94110077379,0.5625
1511903743251376403,438,1511903743248888969,/gps,1,12,40.2675385,-111.634810167,1497.5,1.19505444444,5.92574187637,0.5041
1511903743435941820,439,1511903743434746980,/gps,1,12,40.2675401667,-111.634811333,1497.5,1.28456777778,5.88263224385,0.5041
1511903743635881715,440,1511903743634493112,/gps,1,12,40.2675421667,-111.634812667,1497.5,1.36945111111,5.99747490863,0.5041
1511903743837627757,441,1511903743834638118,/gps,1,12,40.2675446667,-111.634813667,1497.4,1.68686333333,6.06501915068,0.5041
1511903744035992809,442,1511903744034683942,/gps,1,12,40.2675473333,-111.634815,1497.5,1.63850555555,6.040933607,0.5041
1511903744237830205,443,1511903744236197948,/gps,1,12,40.2675495,-111.634816167,1497.5,1.28508222222,6.05873596537,0.5041
1511903744433116142,444,1511903744431852102,/gps,1,12,40.2675515,-111.634817333,1497.5,1.23106555555,6.01405553652,0.5041
1511903744637702600,445,1511903744636184930,/gps,1,12,40.2675533333,-111.6348185,1497.5,1.19505444444,6.04896212156,0.5041
1511903744836921871,446,1511903744835800886,/gps,1,12,40.267555,-111.634819667,1497.5,1.22334888889,5.98752653189,0.5041
1511903745038641923,447,1511903745035691976,/gps,1,12,40.267557,-111.634820833,1497.4,1.37408111111,5.99887117203,0.5041
1511903745251479475,448,1511903745249062061,/gps,1,12,40.2675586667,-111.634822,1497.4,1.33395444444,5.98682840019,0.5041
1511903745437956402,449,1511903745436326980,/gps,1,12,40.2675603333,-111.634823167,1497.3,1.25473,5.95698326998,0.5041
1511903745637295621,450,1511903745635288000,/gps,1,12,40.267562,-111.634824333,1497.2,1.27427888889,5.94075170794,0.5041
1511903745833996038,451,1511903745832540988,/gps,1,12,40.2675638333,-111.634825333,1497.2,1.35144555555,6.0166735304,0.5041
1511903746036931142,452,1511903746035473108,/gps,1,12,40.2675658333,-111.634826167,1497.1,1.40083222222,6.00410715979,0.5041
1511903746236481350,453,1511903746235208988,/gps,1,12,40.2675676667,-111.634827167,1497.1,1.31440555555,5.96710617964,0.5041
1511903746438034266,454,1511903746436708927,/gps,1,12,40.2675695,-111.6348285,1497.0,1.27427888889,5.90532152412,0.5041
1511903746636834943,455,1511903746635621070,/gps,1,12,40.2675711667,-111.63483,1496.9,1.19402555555,5.8400462101,0.5041
1511903746835829006,456,1511903746834456920,/gps,1,12,40.267573,-111.634831333,1496.9,1.38437,5.87722172317,0.5041
1511903747034958537,457,1511903747033968925,/gps,1,12,40.267575,-111.634832333,1496.9,1.31080444444,5.88036331582,0.5041
1511903747243665099,458,1511903747242569923,/gps,1,12,40.267577,-111.634833667,1496.9,1.46771,5.83952261132,0.5041
1511903747435408954,459,1511903747433936119,/gps,1,12,40.267579,-111.634835,1496.9,1.32212222222,5.8670988135,0.5041
1511903747635844839,460,1511903747634309053,/gps,1,12,40.267581,-111.634836167,1496.8,1.32057888889,5.8178805286,0.5041
1511903747835839422,461,1511903747834595918,/gps,1,12,40.2675831667,-111.634837333,1496.8,1.36482111111,5.8407443418,0.5041
1511903748036544995,462,1511903748035065889,/gps,1,12,40.2675851667,-111.634838167,1496.7,1.18528,5.91230284113,0.5041
1511903748238290880,463,1511903748234869956,/gps,1,12,40.2675873333,-111.634839,1496.7,1.45433444444,5.94633676154,0.5041
1511903748438113641,464,1511903748435231924,/gps,1,12,40.2675896667,-111.63484,1496.8,1.45433444444,5.96169565896,0.5041
1511903748634095255,465,1511903748631160974,/gps,1,12,40.267592,-111.634841167,1496.8,1.34167111111,5.9065432546,0.5041
1511903748837227443,466,1511903748834466934,/gps,1,12,40.2675941667,-111.634842167,1496.7,1.34321444444,5.97391296373,0.5041
1511903749036828172,467,1511903749035038948,/gps,1,12,40.2675963333,-111.6348435,1496.8,1.35144555555,6.02644737421,0.5041
1511903749248181505,468,1511903749246293067,/gps,1,12,40.2675985,-111.634844833,1496.7,1.35607555555,6.00236183053,0.5041
1511903749435796713,469,1511903749433887958,/gps,1,12,40.267601,-111.634846333,1496.7,1.62152888889,5.97077137107,0.5041
1511903749636151609,470,1511903749634923934,/gps,1,12,40.2676033333,-111.634847833,1496.7,1.31955,5.96797884427,0.5041
1511903749836323953,471,1511903749834999084,/gps,1,12,40.2676051667,-111.634849333,1496.6,1.21614666667,5.87634905854,0.5041
1511903750036062807,472,1511903750033762931,/gps,1,12,40.2676071667,-111.634850833,1496.6,1.42192444444,5.91544443378,0.5041
1511903750237560202,473,1511903750235698938,/gps,1,12,40.2676091667,-111.634851833,1496.5,1.21048777778,5.88053784874,0.5041
1511903750436907130,474,1511903750435440063,/gps,1,12,40.2676111667,-111.634852833,1496.5,1.33395444444,5.94843115665,0.5041
1511903750636463692,475,1511903750635225057,/gps,1,12,40.2676135,-111.6348535,1496.5,1.43118444444,6.01789526088,0.5041
1511903750836803275,476,1511903750835324048,/gps,1,12,40.2676156667,-111.634854167,1496.5,1.33755555555,5.98246507706,0.5041
1511903751038333588,477,1511903751034972906,/gps,1,12,40.2676176667,-111.634855167,1496.5,1.35607555555,5.94389330059,0.5041
1511903751249536556,478,1511903751246611118,/gps,1,12,40.2676198333,-111.634856167,1496.5,1.31749222222,5.94686036032,0.5041
1511903751438003692,479,1511903751434833049,/gps,1,12,40.267622,-111.634856833,1496.4,1.33807,6.03115976319,0.5041
1511903751637726400,480,1511903751634459018,/gps,1,12,40.2676243333,-111.634857333,1496.4,1.5742,6.04267893625,0.5041
1511903751838055202,481,1511903751835762023,/gps,1,12,40.2676268333,-111.634858167,1496.5,1.40546222222,6.05943409707,0.5041
1511903752036936400,482,1511903752035227060,/gps,1,12,40.2676296667,-111.634858833,1496.5,1.86126,6.10359092715,0.5041
1511903752238434629,483,1511903752235316991,/gps,1,12,40.2676321667,-111.634859333,1496.5,1.15081222222,6.11894982457,0.5041
1511903752440063118,484,1511903752438268899,/gps,1,12,40.2676343333,-111.6348595,1496.6,1.35093111111,6.1489694877,0.5041
1511903752635947910,485,1511903752634273052,/gps,1,12,40.2676361667,-111.63486,1496.5,1.21769,6.08020351517,0.5041
1511903752836930618,486,1511903752835794925,/gps,1,12,40.2676383333,-111.634861,1496.4,1.51915444444,6.0145791353,0.5041
1511903753036059889,487,1511903753035043001,/gps,1,12,40.2676403333,-111.634862,1496.5,1.13332111111,5.9737384308,0.5041
1511903753248065826,488,1511903753246835947,/gps,1,12,40.2676423333,-111.634863167,1496.5,1.32160777778,5.87198573541,0.5041
1511903753437780149,489,1511903753436455011,/gps,1,12,40.2676441667,-111.634864667,1496.5,1.16521666667,5.84598032956,0.5041
1511903753637398691,490,1511903753636240005,/gps,1,12,40.2676463333,-111.634866,1496.5,1.60609555555,5.96221925774,0.5041
1511903753838043951,491,1511903753836657047,/gps,1,12,40.2676486667,-111.634867333,1496.3,1.58757555555,5.96344098821,0.5041
1511903754033805097,492,1511903754032636880,/gps,1,12,40.267651,-111.634868667,1496.2,1.51246666667,5.9515727493,0.5041
1511903754235500618,493,1511903754234163999,/gps,1,12,40.2676533333,-111.63487,1496.2,1.52635666667,5.99572957938,0.5041
1511903754436829420,494,1511903754435484886,/gps,1,12,40.2676553333,-111.634871,1496.1,1.04895222222,5.98560666971,0.5041
1511903754636059628,495,1511903754634255886,/gps,1,12,40.2676568333,-111.634872,1496.0,1.08599222222,5.92958160073,0.5041
1511903754836695565,496,1511903754834753036,/gps,1,12,40.2676585,-111.634873,1496.0,1.07981888889,5.94075170794,0.5041
1511903755038851034,497,1511903755036144018,/gps,1,12,40.26766,-111.634874,1495.9,0.927543333333,5.89589674616,0.5041
1511903755251908534,498,1511903755246293067,/gps,1,12,40.2676613333,-111.634874833,1495.9,0.699644444444,5.8815850463,0.5041
1511903755433605773,499,1511903755430078029,/gps,1,12,40.2676616667,-111.634875667,1495.7,0.324614444444,5.8815850463,0.5041
1511903755636981190,500,1511903755634628057,/gps,1,12,40.2676615,-111.6348765,1495.6,0.406411111111,5.8815850463,0.5041
1511903755835884836,501,1511903755834012031,/gps,1,12,40.2676613333,-111.634877333,1495.5,0.327186666666,5.8815850463,0.5041
1511903756036471763,502,1511903756034620046,/gps,1,12,40.2676608333,-111.634877833,1495.4,0.250534444444,5.8815850463,0.5041
1511903756237684054,503,1511903756235300064,/gps,1,12,40.26766,-111.634878167,1495.3,0.540166666666,5.8815850463,0.5041
1511903756435190148,504,1511903756434003114,/gps,1,12,40.267659,-111.634878667,1495.3,0.579778888888,5.8815850463,0.5041
1511903756635038221,505,1511903756633670091,/gps,1,12,40.2676596667,-111.634879167,1495.3,1.12303222222,5.8815850463,0.5625
1511903756831688117,506,1511903756830436944,/gps,1,12,40.2676616667,-111.63488,1495.2,1.13640777778,5.92452014589,0.5625
1511903757034897387,507,1511903757033621072,/gps,1,12,40.2676633333,-111.634880667,1495.1,0.866324444444,5.92452014589,0.5625
1511903757234742335,508,1511903757233222007,/gps,1,12,40.2676651667,-111.634880833,1495.1,1.07981888889,6.1697389058,0.5625
1511903757435123689,509,1511903757433814048,/gps,1,12,40.267667,-111.634881167,1495.1,1.10348333333,6.16345572049,0.5625
1511903757633899731,510,1511903757632702112,/gps,1,12,40.2676688333,-111.6348815,1495.1,0.927543333333,6.10935051368,0.5625
1511903757835704158,511,1511903757834369897,/gps,1,12,40.2676706667,-111.634882167,1495.2,0.984132222221,6.11720449531,0.5625
1511903758034663533,512,1511903758033420085,/gps,1,12,40.267672,-111.634882667,1495.2,0.579264444444,6.11720449531,0.5625
1511903758231929627,513,1511903758230433940,/gps,1,12,40.2676728333,-111.634882667,1495.2,0.596755555555,6.18195621056,0.5625
1511903758436620720,514,1511903758434839963,/gps,1,12,40.2676738333,-111.634882833,1495.2,0.663118888888,6.15368187668,0.5625
1511903758633896553,515,1511903758632466077,/gps,1,12,40.2676746667,-111.634883167,1495.2,0.469687777777,6.15368187668,0.5625
1511903758834278480,516,1511903758832797050,/gps,1,12,40.2676753333,-111.634883333,1495.1,0.524733333333,6.15368187668,0.5625
1511903759034241605,517,1511903759032783985,/gps,1,12,40.267676,-111.634883333,1495.1,0.322042222222,6.15368187668,0.5625
1511903759246167439,518,1511903759244966983,/gps,1,12,40.2676765,-111.634883667,1495.1,0.43059,6.15368187668,0.5625
1511903759434934991,519,1511903759433290958,/gps,1,12,40.267677,-111.634884,1495.1,0.214523333333,6.15368187668,0.5041
1511903759631408897,520,1511903759629502058,/gps,1,12,40.2676768333,-111.634884333,1495.0,0.247962222222,6.15368187668,0.5041
1511903759834921032,521,1511903759833185911,/gps,1,12,40.2676765,-111.6348845,1495.0,0.290661111111,6.15368187668,0.5041
1511903760037250407,522,1511903760034097909,/gps,1,12,40.267676,-111.634884333,1494.9,0.350336666666,6.15368187668,0.5041
1511903760237067386,523,1511903760233967065,/gps,1,12,40.2676753333,-111.634884,1494.8,0.469687777777,6.15368187668,0.5041
1511903760436569782,524,1511903760434398889,/gps,1,12,40.2676741667,-111.634883333,1494.6,0.572062222222,6.15368187668,0.5041
1511903760637727490,525,1511903760634298086,/gps,1,12,40.2676731667,-111.634883,1494.5,0.559715555555,6.15368187668,0.5041
1511903760837680511,526,1511903760835726976,/gps,1,12,40.2676713333,-111.634882333,1494.3,1.12972,4.52808221137,0.5041
1511903761033456032,527,1511903761030446052,/gps,1,12,40.2676693333,-111.634882,1494.0,1.01911444444,4.52808221137,0.5041
1511903761250974938,528,1511903761247863054,/gps,1,12,40.2676671667,-111.634882333,1493.8,1.37408111111,4.08564124599,0.5041
1511903761438503011,529,1511903761435542106,/gps,1,12,40.2676646667,-111.634883,1493.5,1.58191666667,4.08564124599,0.5041
1511903761638141865,530,1511903761634535074,/gps,1,12,40.2676618333,-111.6348835,1493.1,1.46976777778,4.08564124599,0.5041
1511903761837320719,531,1511903761834551095,/gps,1,12,40.2676591667,-111.634884167,1492.8,1.20122777778,4.08564124599,0.5041
1511903762036595406,532,1511903762033603906,/gps,1,12,40.267658,-111.634884667,1492.7,0.112663333333,4.08564124599,0.5625
1511903762237849260,533,1511903762234961986,/gps,1,12,40.2676575,-111.6348845,1492.6,0.0797388888888,4.08564124599,0.5625
1511903762434295458,534,1511903762431313991,/gps,1,12,40.2676573333,-111.634884333,1492.6,0.241788888889,4.08564124599,0.5625
1511903762636864521,535,1511903762633833885,/gps,1,12,40.2676573333,-111.634883833,1492.5,0.204748888889,4.08564124599,0.5625
1511903762836790666,536,1511903762833898067,/gps,1,12,40.2676573333,-111.634883333,1492.4,0.233043333333,4.08564124599,0.5625
1511903763037092229,537,1511903763032962083,/gps,1,12,40.2676573333,-111.634883,1492.3,0.207835555555,4.08564124599,0.5625
1511903763250480718,538,1511903763245565891,/gps,1,12,40.2676566667,-111.634882833,1492.1,0.682667777777,4.08564124599,0.5041
1511903763439747333,539,1511903763436549901,/gps,1,12,40.2676555,-111.634882667,1492.1,0.80459111111,3.60602476755,0.5041
1511903763637490145,540,1511903763634582042,/gps,1,12,40.2676543333,-111.634882833,1492.0,0.568461111111,3.60602476755,0.5041
1511903763835192801,541,1511903763832750082,/gps,1,12,40.267653,-111.634883167,1492.0,0.898734444444,3.60602476755,0.5041
1511903764036982645,542,1511903764034261941,/gps,1,12,40.2676515,-111.634883667,1491.9,0.968184444444,3.60602476755,0.5041
1511903764237106864,543,1511903764234170913,/gps,1,12,40.2676498333,-111.634884,1491.8,1.04946666667,3.60602476755,0.5041
1511903764437500926,544,1511903764434516906,/gps,1,12,40.2676483333,-111.634884333,1491.7,0.708904444444,3.60602476755,0.5041
1511903764638810562,545,1511903764635654926,/gps,1,12,40.2676471667,-111.634884667,1491.6,0.778354444444,3.60602476755,0.5041
1511903764840796134,546,1511903764836687088,/gps,1,12,40.2676456667,-111.634885,1491.6,1.02271555555,3.40827896329,0.5041
1511903765038124364,547,1511903765035445928,/gps,1,12,40.267644,-111.634885333,1491.5,1.17447666667,3.36342400152,0.5041
1511903765255046291,548,1511903765250629901,/gps,1,12,40.267642,-111.6348855,1491.4,1.17499111111,3.30914426178,0.5041
1511903765437984624,549,1511903765436214923,/gps,1,12,40.2676401667,-111.634885667,1491.4,1.13795111111,3.28854937661,0.5041
1511903765637173634,550,1511903765635229110,/gps,1,12,40.2676386667,-111.634886,1491.2,0.797903333333,3.28854937661,0.5041
1511903765837518530,551,1511903765835524082,/gps,1,12,40.2676366667,-111.634886,1491.1,1.76248666667,3.24526521116,0.5041
