%time,field.header.seq,field.header.stamp,field.header.frame_id,field.fix,field.NumSat,field.latitude,field.longitude,field.altitude,field.speed,field.ground_course,field.covariance
1511903291820543034,484,1511903291819438934,/gps,1,11,40.2679473333,-111.63445,1497.4,0.101345555555,0.0,1.0609
1511903292025212148,485,1511903292023767948,/gps,1,11,40.2679473333,-111.634450167,1497.5,0.0668777777777,0.0,1.0609
1511903292225439492,486,1511903292224035024,/gps,1,11,40.2679473333,-111.634450333,1497.5,0.0457855555555,0.0,1.0609
1511903292425153658,487,1511903292423882961,/gps,1,11,40.2679475,-111.634450833,1497.6,0.214523333333,0.0,1.0609
1511903292625344387,488,1511903292623987913,/gps,1,11,40.2679476667,-111.6344505,1497.5,0.192402222222,0.0,1.0609
1511903292825205846,489,1511903292824033975,/gps,1,11,40.2679475,-111.634450333,1497.5,0.0848833333333,0.0,1.0609
1511903293025149023,490,1511903293023849010,/gps,1,11,40.2679473333,-111.6344505,1497.5,0.154333333333,0.0,1.0609
1511903293223414179,491,1511903293221606969,/gps,1,11,40.2679468333,-111.634450667,1497.6,0.209893333333,0.0,1.0609
1511903293425161471,492,1511903293424074888,/gps,1,11,40.2679465,-111.634451167,1497.8,0.122952222222,0.0,1.0609
1511903293625892668,493,1511903293624196052,/gps,1,11,40.2679463333,-111.634451667,1497.9,0.0797388888888,0.0,1.0609
1511903293825651939,494,1511903293824428081,/gps,1,11,40.2679465,-111.634452,1498.1,0.156391111111,0.0,1.0609
1511903294025579699,495,1511903294024591922,/gps,1,11,40.2679463333,-111.6344525,1498.2,0.151761111111,0.0,1.0609
1511903294228034543,496,1511903294224751949,/gps,1,11,40.2679458333,-111.634453333,1498.5,0.11112,0.0,1.0609
1511903294427291574,497,1511903294426094055,/gps,1,11,40.2679455,-111.634453667,1498.6,0.188801111111,0.0,1.0609
1511903294623217720,498,1511903294622024059,/gps,1,11,40.2679451667,-111.634454667,1498.7,0.357024444444,0.0,1.0609
1511903294827045585,499,1511903294825582981,/gps,1,11,40.2679448333,-111.634455,1498.9,0.21761,0.0,1.0609
1511903295038319647,500,1511903295026384115,/gps,1,11,40.2679443333,-111.6344555,1498.9,0.420815555555,0.0,1.0609
1511903295229046626,501,1511903295226769924,/gps,1,11,40.2679438333,-111.634456167,1499.0,0.29169,0.0,1.0609
1511903295427294126,502,1511903295425867080,/gps,1,11,40.2679436667,-111.634456667,1499.0,0.209378888889,0.0,1.0609
1511903295627168188,503,1511903295626315116,/gps,1,11,40.267943,-111.634456833,1499.0,0.436763333333,0.0,1.0609
1511903295828286001,504,1511903295826817035,/gps,1,11,40.2679426667,-111.634457333,1498.9,0.498496666666,0.0,1.0609
1511903296025006574,505,1511903296024010896,/gps,1,11,40.267942,-111.634457833,1498.9,0.311238888889,0.0,1.0609
1511903296225277615,506,1511903296224020957,/gps,1,11,40.2679413333,-111.634458333,1498.7,0.535536666666,0.0,1.0609
1511903296425553709,507,1511903296424045085,/gps,1,11,40.2679405,-111.634459,1498.6,0.740799999999,0.0,1.0609
1511903296625133709,508,1511903296623857975,/gps,1,11,40.2679398333,-111.63446,1498.5,0.673407777777,0.0,1.0609
1511903296825405636,509,1511903296824111938,/gps,1,11,40.2679396667,-111.6344615,1498.4,0.773209999999,0.0,1.0609
1511903297024848969,510,1511903297023092031,/gps,1,11,40.2679393333,-111.634462833,1498.2,0.791729999999,0.0,1.0609
1511903297226710948,511,1511903297225383043,/gps,1,11,40.2679378333,-111.634464667,1498.3,1.14361,3.32048890192,1.0609
1511903297433987198,512,1511903297433121919,/gps,1,11,40.2679366667,-111.634465333,1498.1,0.787099999999,3.6507051964,1.0201
1511903297625652979,513,1511903297624747991,/gps,1,11,40.2679356667,-111.6344665,1498.1,1.04020666667,3.91686790733,1.0201
1511903297827570271,514,1511903297826627016,/gps,1,11,40.267935,-111.634468,1498.0,0.88330111111,4.01268648326,1.0201
1511903298028168448,515,1511903298026400089,/gps,1,11,40.2679343333,-111.634469833,1498.0,0.956352222221,4.08284871919,1.0201
1511903298226580219,516,1511903298225433111,/gps,1,11,40.2679335,-111.634471667,1498.1,1.09268,4.15196375757,1.0201
1511903298426410635,517,1511903298424696922,/gps,1,11,40.2679326667,-111.634473833,1498.1,0.856549999999,4.23626316044,1.2321
1511903298622953448,518,1511903298621718883,/gps,1,11,40.267932,-111.6344755,1498.1,0.699129999999,4.23626316044,1.2321
1511903298828685010,519,1511903298826673984,/gps,1,11,40.267931,-111.634477,1498.0,0.949664444444,4.14201538083,1.2321
1511903299025528135,520,1511903299024139881,/gps,1,11,40.2679303333,-111.634478167,1497.8,0.594183333333,4.14201538083,1.0201
1511903299225804489,521,1511903299224430084,/gps,1,11,40.2679305,-111.634478667,1497.6,0.577721111111,4.14201538083,1.0201
1511903299425913864,522,1511903299424571037,/gps,1,11,40.2679301667,-111.634479167,1497.5,0.607558888888,4.14201538083,1.0201
1511903299625055999,523,1511903299623518943,/gps,1,11,40.26793,-111.634479667,1497.4,0.361654444444,4.14201538083,1.0201
1511903299825435687,524,1511903299823982000,/gps,1,11,40.26793,-111.634479833,1497.4,0.133755555555,4.14201538083,1.0201
1511903300025805478,525,1511903300023704051,/gps,1,11,40.26793,-111.634479667,1497.4,0.119865555555,4.14201538083,1.0201
1511903300225636937,526,1511903300223974943,/gps,1,11,40.2679305,-111.634479333,1497.3,0.126553333333,4.14201538083,1.0201
1511903300426366051,527,1511903300424631118,/gps,1,11,40.2679303333,-111.634479,1497.4,0.0925999999999,4.14201538083,1.0201
1511903300626019957,528,1511903300624301910,/gps,1,11,40.2679303333,-111.6344785,1497.4,0.11575,4.14201538083,1.0201
1511903300827606936,529,1511903300825138092,/gps,1,11,40.2679303333,-111.634478167,1497.3,0.20372,4.14201538083,1.0201
1511903301026377666,530,1511903301024703979,/gps,1,11,40.2679301667,-111.634478,1497.3,0.0699644444444,4.14201538083,1.0201
1511903301227614280,531,1511903301225430011,/gps,1,11,40.2679301667,-111.634477833,1497.4,0.0385833333333,4.14201538083,1.0201
1511903301427599905,532,1511903301424480915,/gps,1,11,40.2679301667,-111.634477667,1497.4,0.0447566666666,4.14201538083,1.0201
1511903301624790999,533,1511903301623639106,/gps,1,11,40.2679305,-111.634477833,1497.4,0.113177777778,4.14201538083,1.0201
1511903301824400165,534,1511903301823102951,/gps,1,11,40.2679306667,-111.634478167,1497.4,0.0668777777777,4.14201538083,1.0201
1511903302024633290,535,1511903302023363113,/gps,1,11,40.2679308333,-111.634478333,1497.3,0.0689355555555,4.14201538083,1.0201
1511903302225454957,536,1511903302223484039,/gps,1,11,40.2679311667,-111.634478667,1497.3,0.0709933333333,4.14201538083,1.0201
1511903302424240113,537,1511903302423306941,/gps,1,11,40.2679313333,-111.634478833,1497.3,0.0159477777778,4.14201538083,1.0201
1511903302624722509,538,1511903302623399972,/gps,1,11,40.2679316667,-111.634479167,1497.3,0.0895133333333,4.14201538083,1.0201
1511903302822331467,539,1511903302820977926,/gps,1,11,40.2679316667,-111.6344795,1497.3,0.0725366666666,4.14201538083,1.0201
1511903303024172196,540,1511903303023099899,/gps,1,11,40.2679315,-111.634479833,1497.3,0.0123466666667,4.14201538083,1.2321
1511903303224902561,541,1511903303223665952,/gps,1,11,40.2679311667,-111.63448,1497.3,0.165651111111,4.14201538083,1.2321
1511903303425167873,542,1511903303423227071,/gps,1,11,40.2679308333,-111.634480333,1497.3,0.221211111111,4.14201538083,1.2321
1511903303624898185,543,1511903303623394012,/gps,1,11,40.2679303333,-111.634481,1497.4,0.263395555555,4.14201538083,1.2321
1511903303824285894,544,1511903303822571992,/gps,1,11,40.2679303333,-111.634482,1497.4,0.483063333333,4.14201538083,1.0201
1511903304023604019,545,1511903304022453069,/gps,1,11,40.26793,-111.6344835,1497.3,0.796874444444,4.14201538083,1.0201
1511903304223659643,546,1511903304222456932,/gps,1,11,40.2679298333,-111.6344855,1497.2,0.979502222221,4.29350995991,1.0201
1511903304424522091,547,1511903304423477888,/gps,1,11,40.2679291667,-111.6344875,1497.2,0.823625555555,4.29350995991,1.0201
1511903304625020112,548,1511903304623821973,/gps,1,11,40.2679286667,-111.634489667,1497.2,1.03969222222,4.3779838957,1.0201
1511903304825952091,549,1511903304824726104,/gps,1,11,40.2679276667,-111.634492167,1497.4,0.910052222221,4.43348536592,1.0201
1511903305027116466,550,1511903305024979114,/gps,1,11,40.267927,-111.6344945,1497.4,1.10039666667,4.30694899515,1.0201
1511903305231176101,551,1511903305226973056,/gps,1,11,40.2679266667,-111.6344975,1497.3,1.43221333333,4.40049864305,1.0201
1511903305427914643,552,1511903305426347970,/gps,1,11,40.2679261667,-111.634500833,1497.2,1.41163555555,4.33714319121,1.0201
1511903305623338289,553,1511903305622302055,/gps,1,11,40.2679256667,-111.634503833,1497.0,1.28508222222,4.26977348208,1.0201
1511903305827099695,554,1511903305825751066,/gps,1,11,40.2679253333,-111.634506667,1496.9,1.44558888889,4.29944407936,1.0201
1511903306027468705,555,1511903306026148080,/gps,1,11,40.2679248333,-111.634509833,1496.8,1.27067777778,4.32562401814,1.0201
1511903306226880268,556,1511903306225450992,/gps,1,11,40.2679245,-111.634513,1496.8,1.25370111111,4.43034377326,1.0201
1511903306427775163,557,1511903306426526069,/gps,1,11,40.267924,-111.634516,1496.8,1.20174222222,4.43348536592,1.0201
1511903306627723705,558,1511903306626543045,/gps,1,11,40.267924,-111.634519,1496.7,1.12611888889,4.49631721899,1.0201
1511903306827199642,559,1511903306825705051,/gps,1,11,40.2679236667,-111.634522,1496.7,1.29022666667,4.42632951598,1.0201
1511903307024124799,560,1511903307022809028,/gps,1,11,40.2679233333,-111.634525,1496.6,1.30926111111,4.48095832157,1.0201
1511903307226600840,561,1511903307225133895,/gps,1,11,40.2679235,-111.634528,1496.5,1.12457555555,4.55949813791,1.0201
1511903307430205892,562,1511903307429228067,/gps,1,12,40.2679233333,-111.634531333,1496.5,1.54590555555,4.65112792364,0.7056
1511903307629464486,563,1511903307628387928,/gps,1,12,40.2679231667,-111.6345355,1496.6,1.53304444444,4.70994551943,0.7056
1511903307828675528,564,1511903307827723026,/gps,1,12,40.2679236667,-111.634538833,1496.5,1.18630888889,4.8115236819,0.7056
1511903308029351986,565,1511903308027556896,/gps,1,12,40.2679245,-111.634541833,1496.4,1.27067777778,4.88727097143,0.7056
1511903308227322298,566,1511903308225625038,/gps,1,12,40.2679255,-111.634544667,1496.2,1.11943111111,5.02427931772,0.81
1511903308426292038,567,1511903308424489021,/gps,1,12,40.2679268333,-111.634548,1496.1,1.61587,5.07105414167,0.81
1511903308627146308,568,1511903308625502109,/gps,1,12,40.2679278333,-111.634552,1495.9,1.57368555555,5.08309691351,0.81
1511903308829044902,569,1511903308827332019,/gps,1,12,40.2679286667,-111.634555833,1495.9,1.20019888889,5.16879257978,0.81
1511903309027207923,570,1511903309025754928,/gps,1,12,40.26793,-111.634558833,1495.7,1.18270777778,5.16373112495,0.7056
1511903309228243131,571,1511903309227221965,/gps,1,12,40.267931,-111.634562,1495.7,1.34012777778,5.20020850632,0.7056
1511903309429426048,572,1511903309428467988,/gps,1,12,40.2679323333,-111.634565333,1495.7,1.24958555555,5.21312394278,0.5625
1511903309628765475,573,1511903309627773046,/gps,1,12,40.2679336667,-111.634569,1495.6,1.58448888889,5.20963328428,0.5625
1511903309829389745,574,1511903309827843904,/gps,1,12,40.267935,-111.634572167,1495.5,1.34167111111,5.21417114033,0.5625
1511903310031306516,575,1511903310028625011,/gps,1,12,40.2679365,-111.634575167,1495.5,1.42501111111,5.28712590307,0.5625
1511903310232832506,576,1511903310230006933,/gps,1,12,40.2679378333,-111.634578,1495.4,1.38231222222,5.2707198081,0.5625
1511903310428950891,577,1511903310427433013,/gps,1,12,40.2679391667,-111.634580667,1495.3,1.17653444444,5.29689974688,0.5625
1511903310628720891,578,1511903310627046108,/gps,1,12,40.2679408333,-111.6345835,1495.3,1.39568777778,5.33669325382,0.5625
1511903310829979328,579,1511903310828491926,/gps,1,12,40.2679425,-111.634586333,1495.2,1.44970444444,5.3136549077,0.5625
1511903311025833703,580,1511903311024460077,/gps,1,12,40.2679435,-111.6345885,1495.1,0.823625555555,5.3136549077,0.5625
1511903311229150735,581,1511903311227685928,/gps,1,12,40.2679441667,-111.634590333,1495.0,0.990819999999,5.22185058904,0.5625
1511903311429226880,582,1511903311427757024,/gps,1,12,40.267945,-111.634592333,1494.8,0.919826666666,5.12131962413,0.5625
1511903311628145839,583,1511903311626646041,/gps,1,12,40.2679458333,-111.634594167,1494.7,0.900792222221,5.09129996099,0.5625
1511903311828269901,584,1511903311826781034,/gps,1,12,40.2679466667,-111.634596,1494.6,1.04329333333,5.0975831463,0.5625
1511903312028776307,585,1511903312027035951,/gps,1,12,40.2679478333,-111.634597833,1494.5,1.10348333333,5.16896711271,0.5625
1511903312227666672,586,1511903312226278066,/gps,1,12,40.2679488333,-111.6345995,1494.5,0.839573333333,5.16896711271,0.5625
1511903312425281359,587,1511903312423640966,/gps,1,12,40.2679496667,-111.634601667,1494.7,1.00008,5.08152611718,0.5625
1511903312628935786,588,1511903312627336025,/gps,1,12,40.2679505,-111.634604,1494.6,0.815394444444,5.00159003744,0.5625
1511903312829270369,589,1511903312827656984,/gps,1,12,40.2679513333,-111.634606,1494.6,0.974872222221,5.10386633161,0.5625
1511903313029951255,590,1511903313027550935,/gps,1,12,40.267952,-111.634608333,1494.6,0.917254444444,5.04731766384,0.5625
1511903313229171307,591,1511903313227946996,/gps,1,12,40.2679523333,-111.634610833,1494.4,1.03351888889,4.93788551974,0.5625
1511903313428233338,592,1511903313426808118,/gps,1,12,40.267953,-111.634613167,1494.4,0.957895555555,5.03859101758,0.5625
1511903313627455473,593,1511903313626173973,/gps,1,12,40.2679535,-111.634615667,1494.4,0.987733333332,5.04574686752,0.5625
1511903313825597817,594,1511903313823975086,/gps,1,12,40.2679541667,-111.634617667,1494.3,0.873526666666,5.11102218154,0.5625
1511903314028573858,595,1511903314027024030,/gps,1,12,40.2679546667,-111.634619833,1494.3,0.92497111111,5.05028472357,0.5625
1511903314229700785,596,1511903314228001117,/gps,1,12,40.2679555,-111.634622,1494.2,1.16984666667,5.18676947108,0.5625
1511903314429073129,597,1511903314427628040,/gps,1,12,40.2679566667,-111.634624333,1494.1,1.14824,5.2112040806,0.5625
1511903314628279692,598,1511903314626714944,/gps,1,12,40.2679575,-111.634626333,1494.0,0.891017777777,5.24227094129,0.5625
1511903314828470004,599,1511903314827065944,/gps,1,12,40.2679581667,-111.634628167,1494.0,0.989276666666,5.16669818468,0.5625
1511903315030934431,600,1511903315027762889,/gps,1,12,40.2679591667,-111.634630167,1493.9,1.16161555555,5.2333697621,0.5625
1511903315226746046,601,1511903315224534034,/gps,1,12,40.2679603333,-111.634632167,1493.8,1.04175,5.32185795518,0.5625
1511903315429586670,602,1511903315427335023,/gps,1,12,40.2679616667,-111.634634667,1493.9,1.50269222222,5.30318293218,0.5625
1511903315630548337,603,1511903315627707004,/gps,1,12,40.2679628333,-111.634637167,1493.8,1.22489222222,5.28590417259,0.5625
1511903315830083858,604,1511903315827801942,/gps,1,12,40.2679638333,-111.6346395,1493.8,1.09731,5.24035107911,0.5625
1511903316029181462,605,1511903316026885986,/gps,1,12,40.267965,-111.634642,1493.7,1.29228444444,5.23738401938,0.5625
1511903316229317764,606,1511903316227492094,/gps,1,12,40.267966,-111.6346445,1493.6,1.09422333333,5.23092630115,0.5625
1511903316432306878,607,1511903316430171966,/gps,1,12,40.2679673333,-111.634646667,1493.6,1.30257333333,5.3607787975,0.5625
1511903316627064639,608,1511903316625097990,/gps,1,12,40.267969,-111.634649,1493.4,1.39980333333,5.30527732729,0.5625
1511903316830950420,609,1511903316828558921,/gps,1,12,40.2679701667,-111.634651833,1493.3,1.26707666667,5.25326651558,0.5625
1511903317032240107,610,1511903317029725074,/gps,1,12,40.2679713333,-111.6346545,1493.3,1.13949444444,5.22167605612,0.5625
1511903317230658753,611,1511903317228085041,/gps,1,12,40.2679723333,-111.634657333,1493.2,1.29742888889,5.18031175284,0.5625
1511903317430745680,612,1511903317428010940,/gps,1,12,40.267973,-111.634660333,1493.0,1.12714777778,5.12812640821,0.5625
1511903317631131565,613,1511903317628897905,/gps,1,12,40.2679738333,-111.634663333,1493.0,1.31852111111,5.12201775583,0.5625
1511903317831269013,614,1511903317829058885,/gps,1,12,40.2679748333,-111.634666667,1492.9,1.49703333333,5.11590910345,0.5625
1511903318028413388,615,1511903318025116920,/gps,1,12,40.2679758333,-111.634669833,1492.8,1.25678777778,5.09513968535,0.5625
1511903318231160524,616,1511903318228398084,/gps,1,12,40.2679765,-111.634672333,1492.7,1.06695777778,5.12899907284,0.5625
1511903318429931982,617,1511903318427921056,/gps,1,12,40.2679773333,-111.634674833,1492.6,1.14000888889,5.13545679107,0.5625
1511903318630210159,618,1511903318628086090,/gps,1,12,40.2679781667,-111.634677167,1492.6,1.01191222222,5.16495285543,0.5625
1511903318830794690,619,1511903318828609943,/gps,1,12,40.2679791667,-111.6346795,1492.6,1.21254555555,5.23878028279,0.5625
1511903319030183284,620,1511903319028565883,/gps,1,12,40.2679803333,-111.634682,1492.6,1.24804222222,5.2907910945,0.5625
1511903319230913075,621,1511903319229041099,/gps,1,12,40.2679811667,-111.634684333,1492.5,0.991334444444,5.25501184483,0.5625
1511903319428171461,622,1511903319426026105,/gps,1,12,40.2679821667,-111.634686833,1492.5,1.12560444444,5.20666622455,0.5625
1511903319628485679,623,1511903319627249956,/gps,1,12,40.267983,-111.634689667,1492.4,1.25112888889,5.12131962413,0.5625
1511903319828869898,624,1511903319827161073,/gps,1,12,40.2679836667,-111.634692,1492.5,0.812307777777,5.12131962413,0.5625
1511903320030465731,625,1511903320028489112,/gps,1,12,40.2679845,-111.6346945,1492.5,1.29485666667,5.10997498399,0.5625
1511903320229944169,626,1511903320227449893,/gps,1,12,40.2679848333,-111.634697667,1492.5,1.23363777778,4.93526752586,0.5625
1511903320431457241,627,1511903320428986072,/gps,1,12,40.2679845,-111.634700833,1492.4,1.30874666667,4.63524542745,0.5625
1511903320631388075,628,1511903320628354072,/gps,1,12,40.267984,-111.634704,1492.4,1.36585,4.4825291179,0.5625
1511903320827517606,629,1511903320825126886,/gps,1,12,40.2679831667,-111.634707167,1492.3,1.47182555555,4.32667121569,0.5929
1511903321034290158,630,1511903321032308101,/gps,1,12,40.2679818333,-111.634709833,1492.3,1.43375666667,4.19193179744,0.5625
1511903321231089481,631,1511903321228650093,/gps,1,12,40.26798,-111.6347125,1492.2,1.86383222222,4.02001686612,0.5625
1511903321430820939,632,1511903321428234100,/gps,1,12,40.2679775,-111.634715167,1492.2,1.73264888889,3.94461864243,0.5625
1511903321630705262,633,1511903321628353118,/gps,1,12,40.2679746667,-111.634717333,1492.2,1.66885777778,3.82419092404,0.5625
1511903321830260731,634,1511903321828064918,/gps,1,12,40.267972,-111.634719333,1492.2,1.63593333333,3.73884432362,0.5625
1511903322032757918,635,1511903322029516935,/gps,1,12,40.2679693333,-111.634721167,1492.3,1.55259333333,3.737971659,0.5625
1511903322228192814,636,1511903322225541114,/gps,1,12,40.2679665,-111.634723167,1492.4,1.74139444444,3.72907047981,0.5625
1511903322430907397,637,1511903322428461074,/gps,1,12,40.2679636667,-111.634725333,1492.3,1.78203555555,3.69939988253,0.5625
1511903322629360001,638,1511903322627537012,/gps,1,12,40.2679611667,-111.634727,1492.2,1.52841444444,3.67793233273,0.5625
1511903322830080470,639,1511903322827826023,/gps,1,12,40.2679585,-111.634728333,1492.2,1.65291,3.58734974455,0.5625
1511903323027928647,640,1511903323026099920,/gps,1,12,40.2679558333,-111.6347295,1492.1,1.34012777778,3.59380746278,0.5625
1511903323228897032,641,1511903323226993083,/gps,1,12,40.2679533333,-111.634731167,1492.1,1.49600444444,3.59014227135,0.5625
1511903323429031511,642,1511903323426971912,/gps,1,12,40.2679505,-111.6347325,1492.1,1.64107777778,3.51823470617,0.5625
1511903323630634324,643,1511903323627204895,/gps,1,12,40.2679476667,-111.6347335,1492.1,1.49754777778,3.47948839678,0.5625
1511903323828222032,644,1511903323826090097,/gps,1,12,40.267945,-111.634734667,1492.1,1.57471444444,3.50985712576,0.5625
1511903324028234271,645,1511903324026823997,/gps,1,12,40.2679423333,-111.6347355,1492.1,1.33858444444,3.48577158208,0.5625
1511903324228879584,646,1511903324227962970,/gps,1,12,40.2679398333,-111.634736167,1492.2,1.33909888889,3.4962435576,0.5625
1511903324429094271,647,1511903324427767992,/gps,1,12,40.2679373333,-111.634737167,1492.1,1.55876666667,3.50654100018,0.5625
1511903324627761042,648,1511903324626527070,/gps,1,12,40.2679343333,-111.634738167,1492.1,1.60712444444,3.55541021924,0.5625
1511903324827390781,649,1511903324826529026,/gps,1,12,40.2679313333,-111.634739,1492.1,1.74190888889,3.47913933093,0.5625
1511903325029572813,650,1511903325027775049,/gps,1,12,40.2679281667,-111.634740167,1492.2,1.58037333333,3.48088466018,0.5625
1511903325228276354,651,1511903325225795030,/gps,1,12,40.2679253333,-111.6347415,1492.3,1.43838666667,3.49851248562,0.7056
1511903325427594531,652,1511903325425920963,/gps,1,12,40.2679226667,-111.634742833,1492.4,1.48057111111,3.55698101556,0.7056
1511903325627115469,653,1511903325625652074,/gps,1,12,40.2679201667,-111.634744333,1492.3,1.55002111111,3.62574698809,0.7056
1511903325827506719,654,1511903325825349092,/gps,1,12,40.2679176667,-111.634745667,1492.3,1.39517333333,3.57967029584,0.7056
1511903326029320052,655,1511903326027667045,/gps,1,12,40.267915,-111.634746667,1492.3,1.46205111111,3.53795692672,0.7056
1511903326226169843,656,1511903326224231958,/gps,1,12,40.2679123333,-111.634747833,1492.3,1.47182555555,3.53167374141,0.7056
1511903326429375729,657,1511903326427298069,/gps,1,12,40.26791,-111.634749167,1492.4,1.32881,3.6056757017,0.7056
1511903326630146145,658,1511903326627862930,/gps,1,12,40.2679078333,-111.6347505,1492.3,1.34990222222,3.57565603856,0.7056
1511903326829245364,659,1511903326827079057,/gps,1,12,40.2679051667,-111.634752,1492.4,1.47439777778,3.58036842754,0.7056
1511903327028292708,660,1511903327026223897,/gps,1,12,40.2679031667,-111.634753167,1492.4,1.17704888889,3.57740136781,0.7056
1511903327228373281,661,1511903327226103067,/gps,1,12,40.2679013333,-111.634754333,1492.3,1.14206666667,3.53882959134,0.7056
1511903327428752030,662,1511903327426187038,/gps,1,12,40.2678995,-111.634755333,1492.3,1.10502666667,3.53498986699,0.7056
1511903327625361770,663,1511903327623393058,/gps,1,12,40.2678976667,-111.634756833,1492.2,1.33035333333,3.59537825911,0.7056
1511903327829669114,664,1511903327827470064,/gps,1,12,40.2678956667,-111.6347585,1492.2,1.33652666667,3.64477107694,0.7056
1511903328030127864,665,1511903328028065919,/gps,1,12,40.2678936667,-111.63476,1492.2,1.18785222222,3.63796429286,0.7056
1511903328230750780,666,1511903328228601932,/gps,1,12,40.2678918333,-111.634761167,1492.2,1.04998111111,3.63517176605,0.7056
1511903328430409790,667,1511903328427990913,/gps,1,12,40.2678901667,-111.634762167,1492.3,0.960467777777,3.59450559448,0.5625
1511903328629693905,668,1511903328627707958,/gps,1,12,40.2678886667,-111.634763,1492.3,1.03917777778,3.65384678905,0.5625
1511903328830971509,669,1511903328828741073,/gps,1,12,40.267887,-111.634764333,1492.3,1.19762666667,3.70603213368,0.5625
1511903329026235728,670,1511903329024012088,/gps,1,12,40.2678851667,-111.634766333,1492.3,1.34835888889,3.71877303722,0.5625
1511903329230938019,671,1511903329229003906,/gps,1,12,40.2678835,-111.6347675,1492.3,0.955323333333,3.6957346911,0.5625
1511903329429936978,672,1511903329427896976,/gps,1,12,40.2678818333,-111.6347685,1492.3,1.15801444444,3.57740136781,0.5625
1511903329628199582,673,1511903329625986099,/gps,1,12,40.2678798333,-111.634769333,1492.4,1.19917,3.54999969856,0.5625
1511903329832424113,674,1511903329829982995,/gps,1,12,40.267878,-111.634770667,1492.4,1.14721111111,3.61771847353,0.5625
1511903330030544529,675,1511903330028426885,/gps,1,12,40.2678761667,-111.634772,1492.3,1.28714,3.65925730973,0.5625
1511903330230995259,676,1511903330227718114,/gps,1,12,40.2678743333,-111.6347735,1492.3,1.29897222222,3.67077648279,0.5625
1511903330429155415,677,1511903330426098108,/gps,1,12,40.2678726667,-111.634775333,1492.3,1.24341222222,3.72313636035,0.5625
1511903330632300310,678,1511903330628770112,/gps,1,12,40.2678706667,-111.634777,1492.3,1.30617444444,3.66187530361,0.5625
1511903330829684737,679,1511903330827699899,/gps,1,12,40.2678685,-111.6347785,1492.2,1.47285444444,3.65943184266,0.5625
1511903331028895102,680,1511903331027586936,/gps,1,12,40.2678666667,-111.634780167,1492.2,1.34218555555,3.71283891777,0.5625
1511903331229009842,681,1511903331227459907,/gps,1,12,40.2678643333,-111.6347815,1492.1,1.76660222222,3.6070719651,0.5625
1511903331428649164,682,1511903331427452087,/gps,1,12,40.2678616667,-111.634782833,1492.0,1.70795555555,3.5655331289,0.5625
1511903331628514477,683,1511903331627156972,/gps,1,12,40.2678591667,-111.6347835,1492.0,1.33549777778,3.49990874902,0.5625
1511903331825579737,684,1511903331824035882,/gps,1,12,40.267857,-111.634784,1491.9,1.37408111111,3.52992841216,0.5625
1511903332029904268,685,1511903332027946949,/gps,1,12,40.2678548333,-111.6347855,1491.9,1.41163555555,3.63255377218,0.5625
1511903332228794945,686,1511903332227601051,/gps,1,12,40.2678528333,-111.6347875,1491.8,1.37459555555,3.66327156701,0.5625
1511903332432004164,687,1511903332430768013,/gps,1,12,40.2678506667,-111.6347895,1491.8,1.49343222222,3.7013197447,0.5625
1511903332628495987,688,1511903332627160072,/gps,1,12,40.2678483333,-111.634791667,1491.8,1.54384777778,3.71388611532,0.5625
1511903332829034268,689,1511903332827924966,/gps,1,12,40.267846,-111.634793833,1491.8,1.41883777778,3.70882466049,0.5625
1511903333028268330,690,1511903333027070045,/gps,1,12,40.2678438333,-111.634795833,1491.8,1.44764666667,3.72174009695,0.5625
1511903333226545987,691,1511903333225380897,/gps,1,12,40.2678416667,-111.634797667,1491.7,1.51349555555,3.70899919341,0.5625
1511903333429776143,692,1511903333428560972,/gps,1,12,40.2678393333,-111.634799833,1491.7,1.52635666667,3.68927697287,0.5625
1511903333629038330,693,1511903333627882003,/gps,1,12,40.2678371667,-111.6348015,1491.6,1.36533555555,3.66082810606,0.5625
1511903333829435413,694,1511903333827788114,/gps,1,12,40.2678351667,-111.6348035,1491.6,1.31543444444,3.64110588551,0.5625
1511903334029281872,695,1511903334028038024,/gps,1,12,40.267833,-111.634805,1491.6,1.28405333333,3.63674256238,0.5625
1511903334228289840,696,1511903334227309942,/gps,1,12,40.2678306667,-111.634806833,1491.7,1.61792777778,3.67182368035,0.5625
1511903334429648486,697,1511903334428623914,/gps,1,12,40.2678283333,-111.634809,1491.6,1.49188888889,3.70219240933,0.5625
1511903334625347288,698,1511903334623672962,/gps,1,12,40.2678258333,-111.634811333,1491.5,1.80518555555,3.74058965287,0.5625
1511903334829119892,699,1511903334827532052,/gps,1,12,40.2678233333,-111.634813833,1491.6,1.47336888889,3.77026025016,0.5625
1511903335028953382,700,1511903335026583909,/gps,1,12,40.267821,-111.634816333,1491.5,1.68120444444,3.79294953043,0.5625
1511903335230490309,701,1511903335227983951,/gps,1,12,40.267819,-111.634818833,1491.5,1.41780888889,3.82820518132,0.5625
1511903335428792809,702,1511903335427054882,/gps,1,12,40.2678173333,-111.634821,1491.5,1.49703333333,3.88772090882,0.5625
1511903335629324788,703,1511903335627773046,/gps,1,12,40.2678153333,-111.634823333,1491.4,1.65651111111,3.91355178175,0.5625
1511903335828948642,704,1511903335826930046,/gps,1,12,40.2678136667,-111.634825833,1491.4,1.52635666667,3.99558225659,0.5625
1511903336027149840,705,1511903336025007009,/gps,1,12,40.267812,-111.6348285,1491.4,1.44456,3.98772827496,0.5625
1511903336229802288,706,1511903336227607011,/gps,1,12,40.2678101667,-111.634830833,1491.4,1.35761888889,3.96870418611,0.5625
1511903336430029683,707,1511903336428281068,/gps,1,12,40.2678088333,-111.634832833,1491.4,0.967155555555,4.03781922449,0.5625
1511903336628077652,708,1511903336626308917,/gps,1,12,40.2678075,-111.634835167,1491.4,1.34372888889,4.08057979116,0.5625
1511903336830175725,709,1511903336827742099,/gps,1,12,40.2678058333,-111.6348375,1491.4,1.19196777778,4.03816829034,0.5625
1511903337030058173,710,1511903337027254104,/gps,1,12,40.267804,-111.634839833,1491.4,1.63953444444,3.98790280788,0.5625
1511903337229867391,711,1511903337227710962,/gps,1,12,40.267802,-111.634842333,1491.3,1.36327777778,3.95055276189,0.5625
1511903337429565568,712,1511903337427561998,/gps,1,12,40.2678,-111.634845,1491.4,1.53613111111,3.99628038829,0.5625
1511903337631109839,713,1511903337629025936,/gps,1,12,40.2677981667,-111.634847667,1491.4,1.53253,4.03083790748,0.5625
1511903337830992599,714,1511903337828562974,/gps,1,12,40.2677965,-111.634850667,1491.4,1.31800666667,4.0725512766,0.5625
1511903338029930568,715,1511903338028060913,/gps,1,12,40.2677948333,-111.634853167,1491.4,1.45845,4.02699818313,0.5625
1511903338229598433,716,1511903338227603912,/gps,1,12,40.2677928333,-111.6348555,1491.5,1.38437,3.95107636066,0.5625
1511903338431380724,717,1511903338428473949,/gps,1,12,40.2677906667,-111.634857333,1491.5,1.37202333333,3.81825680459,0.5625
1511903338630312912,718,1511903338627489089,/gps,1,12,40.2677886667,-111.634859333,1491.5,1.37768222222,3.87480547235,0.5625
1511903338831064318,719,1511903338828089952,/gps,1,12,40.2677868333,-111.634861667,1491.6,1.46050777778,3.81040282295,0.5625
1511903339030725255,720,1511903339028017044,/gps,1,12,40.2677851667,-111.6348635,1491.6,1.27582222222,3.7830011537,0.5625
1511903339229431453,721,1511903339226346969,/gps,1,12,40.2677831667,-111.634865,1491.5,1.34784444444,3.76607145995,0.5625
1511903339429059474,722,1511903339427606105,/gps,1,12,40.2677815,-111.634866333,1491.4,1.11480111111,3.73622632974,0.5625
1511903339628625672,723,1511903339627654075,/gps,1,12,40.2677801667,-111.634868,1491.3,0.930629999999,3.78143035737,0.5625
1511903339829857338,724,1511903339828768014,/gps,1,12,40.2677785,-111.634869833,1491.2,1.40957777778,3.79574205724,0.5625
1511903340027254317,725,1511903340025331974,/gps,1,12,40.2677768333,-111.634871333,1491.1,1.03043222222,3.78265208785,0.5625
1511903340231388588,726,1511903340228272914,/gps,1,12,40.267775,-111.634873167,1491.1,1.21254555555,3.77270371111,0.5625
1511903340429897755,727,1511903340428322076,/gps,1,12,40.2677733333,-111.634874833,1491.1,1.05255333333,3.76275533437,0.5625
1511903340628827130,728,1511903340627691984,/gps,1,12,40.2677716667,-111.6348765,1491.0,1.06387111111,3.72959407859,0.5625
1511903340831581088,729,1511903340829799890,/gps,1,12,40.26777,-111.634878,1491.0,1.03146111111,3.76031187342,0.5625
1511903341028229577,730,1511903341027153968,/gps,1,12,40.2677681667,-111.6348795,1490.9,1.31749222222,3.69939988253,0.5625
1511903341228628744,731,1511903341227791070,/gps,1,12,40.2677663333,-111.6348815,1490.9,1.33241111111,3.82017666677,0.5625
1511903341425722858,732,1511903341424623012,/gps,1,12,40.2677641667,-111.6348835,1491.0,1.33395444444,3.78614274635,0.5625
1511903341629322129,733,1511903341627458095,/gps,1,12,40.2677621667,-111.634885,1490.9,1.31594888889,3.73360833587,0.5625
1511903341828889942,734,1511903341827704906,/gps,1,12,40.2677601667,-111.634887,1490.9,1.30668888889,3.77776516594,0.5625
1511903342030178848,735,1511903342028831005,/gps,1,12,40.2677583333,-111.634889,1491.0,1.36070555555,3.84757833602,0.5625
1511903342228129108,736,1511903342226636886,/gps,1,12,40.2677561667,-111.6348915,1491.0,1.52224111111,3.85141806038,0.5625
1511903342426782493,737,1511903342425501108,/gps,1,12,40.2677541667,-111.634894,1491.0,1.35144555555,3.8723620114,0.5625
1511903342630077337,738,1511903342628485918,/gps,1,12,40.2677525,-111.634896167,1491.0,1.33755555555,3.85543231766,0.5625
1511903342824919420,739,1511903342823570013,/gps,1,12,40.2677505,-111.634898,1491.0,1.31697777778,3.81773320581,0.5625
1511903343028240722,740,1511903343026824951,/gps,1,12,40.2677488333,-111.634900167,1491.0,1.37253777778,3.86782415534,0.5625
1511903343230377597,741,1511903343228971958,/gps,1,12,40.2677468333,-111.634902667,1491.0,1.39928888889,3.86503162854,0.5625
1511903343430845618,742,1511903343428962945,/gps,1,12,40.267745,-111.634905,1491.0,1.42243888889,3.91774057195,0.5625
1511903343629381712,743,1511903343628129959,/gps,1,12,40.2677431667,-111.634907,1491.0,1.31543444444,3.83204490568,0.5625
1511903343830337233,744,1511903343828675985,/gps,1,12,40.2677413333,-111.6349085,1491.0,1.15698555555,3.79242593166,0.5625
1511903344030328535,745,1511903344028665065,/gps,1,12,40.2677395,-111.634910333,1491.0,1.31697777778,3.80499230227,0.5625
1511903344226796555,746,1511903344225409984,/gps,1,12,40.2677376667,-111.634912333,1490.9,1.42604,3.79469485969,0.5625
1511903344429875305,747,1511903344428822040,/gps,1,12,40.2677355,-111.634914167,1490.8,1.41009222222,3.78282662077,0.5625
1511903344630169316,748,1511903344628227949,/gps,1,12,40.2677333333,-111.6349155,1490.8,1.06747222222,3.79975631452,0.5625
1511903344829455461,749,1511903344828337907,/gps,1,12,40.2677313333,-111.634916667,1490.6,1.34527222222,3.7172022409,0.5625
1511903345032268847,750,1511903345028903961,/gps,1,12,40.2677286667,-111.634917833,1490.6,1.23672444444,3.70568306783,0.5625
1511903345233141294,751,1511903345229477882,/gps,1,12,40.2677266667,-111.634919,1490.6,1.10759888889,3.68526271559,0.5625
1511903345431349367,752,1511903345429153919,/gps,1,12,40.267725,-111.634919667,1490.5,0.955837777777,3.56431139842,0.5625
1511903345627782336,753,1511903345624512910,/gps,1,12,40.2677235,-111.63492,1490.5,0.799446666666,3.54965063271,0.5625
1511903345831510201,754,1511903345827583074,/gps,1,12,40.2677216667,-111.6349205,1490.5,0.938346666666,3.46866735541,0.5625
1511903346031856919,755,1511903346028999090,/gps,1,12,40.2677195,-111.634921167,1490.6,1.05769777778,3.48071012725,0.5625
1511903346230000252,756,1511903346228082895,/gps,1,12,40.2677171667,-111.634922167,1490.7,1.16161555555,3.48594611501,0.5625
1511903346431355877,757,1511903346428711891,/gps,1,12,40.267715,-111.6349235,1490.7,1.21923333333,3.59380746278,0.5625
1511903346630333898,758,1511903346628128051,/gps,1,12,40.2677128333,-111.634925333,1490.8,1.39311555555,3.70027254715,0.5625
1511903346830631450,759,1511903346828031063,/gps,1,12,40.2677105,-111.634927333,1490.8,1.45742111111,3.73221207246,0.5625
1511903347026580877,760,1511903347023961067,/gps,1,12,40.2677083333,-111.634929,1490.8,1.42243888889,3.72610342008,0.5625
1511903347231054940,761,1511903347228713989,/gps,1,12,40.2677061667,-111.634930667,1490.8,1.36687888889,3.75001443084,0.5625
1511903347430704106,762,1511903347428179025,/gps,1,12,40.2677041667,-111.6349325,1490.8,1.30926111111,3.77130744771,0.5625
1511903347631680981,763,1511903347628150939,/gps,1,12,40.2677021667,-111.6349345,1490.9,1.42655444444,3.84757833602,0.5625
1511903347830322700,764,1511903347828619956,/gps,1,12,40.2677003333,-111.634937,1490.9,1.41678,3.940953451,0.5625
1511903348031327127,765,1511903348028187990,/gps,1,12,40.2676985,-111.634939,1490.9,1.18836666667,3.8751545382,0.5625
1511903348230108741,766,1511903348228013038,/gps,1,12,40.2676966667,-111.634940667,1490.9,1.27067777778,3.83379023493,0.5625
1511903348427898220,767,1511903348425332069,/gps,1,12,40.2676948333,-111.634942667,1490.9,1.19093888889,3.85805031153,0.5625
1511903348631505304,768,1511903348628695011,/gps,1,12,40.267693,-111.634944833,1491.0,1.27736555555,3.81895493629,0.5625
1511903348830764054,769,1511903348828195095,/gps,1,12,40.2676908333,-111.634947,1490.9,1.52944333333,3.77043478308,0.5625
1511903349031472283,770,1511903349028626918,/gps,1,12,40.2676886667,-111.634949167,1490.9,1.1575,3.77043478308,0.5625
1511903349230957230,771,1511903349228534936,/gps,1,12,40.2676866667,-111.634950833,1491.0,1.16161555555,3.76135907097,0.5625
1511903349429232595,772,1511903349427706956,/gps,1,12,40.2676846667,-111.6349525,1491.0,1.16110111111,3.70219240933,0.5625
1511903349629957855,773,1511903349627777099,/gps,1,12,40.2676828333,-111.634953833,1491.1,1.07981888889,3.72767421641,0.5625
1511903349828487751,774,1511903349825869083,/gps,1,12,40.2676808333,-111.634955333,1491.0,1.26296111111,3.75018896376,0.5625
1511903350031514418,775,1511903350027932882,/gps,1,12,40.2676788333,-111.634957167,1491.0,1.30771777778,3.79155326703,0.5625
1511903350229082959,776,1511903350227128028,/gps,1,12,40.267677,-111.634959,1491.0,1.27736555555,3.82558718745,0.5625
1511903350428864626,777,1511903350427288055,/gps,1,12,40.2676751667,-111.634960667,1491.1,1.03763444444,3.76205720267,0.5625
1511903350627772959,778,1511903350626280069,/gps,1,12,40.2676733333,-111.634962,1491.0,1.22746444444,3.68910243994,0.5625
1511903350829479626,779,1511903350828207969,/gps,1,12,40.2676715,-111.634963167,1491.0,0.977958888888,3.66972928524,0.5625
1511903351028127386,780,1511903351027041912,/gps,1,12,40.2676696667,-111.6349645,1491.1,1.21357444444,3.65437038783,0.5625
1511903351228322907,781,1511903351227231979,/gps,1,12,40.2676675,-111.634966167,1491.1,1.48674444444,3.72767421641,0.5625
1511903351428767542,782,1511903351427154064,/gps,1,12,40.2676653333,-111.634968,1491.1,1.16418777778,3.72732515056,0.5625
1511903351628559209,783,1511903351627418994,/gps,1,12,40.2676635,-111.634969667,1491.2,1.22334888889,3.70812652879,0.5625
1511903351829339261,784,1511903351828210115,/gps,1,12,40.2676616667,-111.634971333,1491.1,0.978473333332,3.73954245532,0.5625
1511903352028265771,785,1511903352026937007,/gps,1,12,40.2676601667,-111.634972667,1491.1,0.97590111111,3.70044708008,0.5625
1511903352228930094,786,1511903352227694988,/gps,1,12,40.2676586667,-111.634973833,1491.1,0.809735555555,3.66047904021,0.5625
1511903352426977802,787,1511903352425700902,/gps,1,12,40.267657,-111.634975167,1491.1,0.995964444444,3.66606409381,0.5625
1511903352627393583,788,1511903352625900983,/gps,1,12,40.2676555,-111.6349765,1491.0,0.573605555555,3.66606409381,0.5625
1511903352827939573,789,1511903352826402902,/gps,1,12,40.2676543333,-111.634977167,1491.1,0.3241,3.66606409381,0.5625
1511903353027509104,790,1511903353026350975,/gps,1,12,40.2676535,-111.634977167,1491.1,0.397665555555,3.66606409381,0.5625
1511903353228127854,791,1511903353226246118,/gps,1,12,40.2676535,-111.6349765,1491.1,0.390463333333,3.66606409381,0.5476
1511903353428177593,792,1511903353426208019,/gps,1,12,40.2676538333,-111.6349755,1491.1,0.540166666666,3.66606409381,0.5476
1511903353625948635,793,1511903353624722003,/gps,1,12,40.2676545,-111.634974167,1491.2,0.598813333333,3.66606409381,0.5476
1511903353824728531,794,1511903353823169946,/gps,1,12,40.2676553333,-111.634973,1491.2,0.536565555555,3.66606409381,0.5476
1511903354028043687,795,1511903354026858091,/gps,1,12,40.2676561667,-111.634971833,1491.2,0.602928888888,3.66606409381,0.5476
1511903354226967854,796,1511903354225713968,/gps,1,12,40.2676568333,-111.634971,1491.2,0.351365555555,3.66606409381,0.7744
1511903354426478583,797,1511903354424787044,/gps,1,12,40.2676571667,-111.634970167,1491.2,0.386862222222,3.66606409381,0.7744
1511903354625449051,798,1511903354624614953,/gps,1,12,40.2676576667,-111.634969333,1491.2,0.433676666666,3.66606409381,0.7744
1511903354827967332,799,1511903354826951980,/gps,1,12,40.267658,-111.634968167,1491.2,0.470202222222,3.66606409381,0.7744
1511903355030604520,800,1511903355028068065,/gps,1,12,40.2676585,-111.6349665,1491.1,0.564345555555,3.66606409381,0.7744
1511903355228032697,801,1511903355225320100,/gps,1,12,40.267659,-111.634964667,1491.1,0.668777777777,3.66606409381,0.7744
1511903355429180405,802,1511903355427762985,/gps,1,12,40.2676598333,-111.634962833,1491.2,0.593154444444,3.66606409381,0.5476
1511903355626784832,803,1511903355625922918,/gps,1,12,40.2676606667,-111.6349615,1491.2,0.525762222222,3.66606409381,0.5476
1511903355827559363,804,1511903355826159000,/gps,1,12,40.2676615,-111.634960333,1491.2,0.572576666666,3.66606409381,0.5476
1511903356028730926,805,1511903356027518033,/gps,1,12,40.2676626667,-111.634959167,1491.2,0.773209999999,3.66606409381,0.5476
1511903356228690353,806,1511903356227571964,/gps,1,12,40.2676638333,-111.634958,1491.3,0.683182222222,3.66606409381,0.5476
1511903356429162019,807,1511903356427891969,/gps,1,12,40.267665,-111.634957333,1491.3,0.612188888888,3.66606409381,0.5476
1511903356625552019,808,1511903356624243021,/gps,1,12,40.2676658333,-111.634956667,1491.3,0.577206666666,3.66606409381,0.5476
1511903356828266655,809,1511903356827075958,/gps,1,12,40.2676666667,-111.634955667,1491.4,0.618876666666,3.66606409381,0.5476
1511903357028334050,810,1511903357027141094,/gps,1,12,40.2676671667,-111.634954667,1491.5,0.681124444444,3.66606409381,0.5476
1511903357228739050,811,1511903357227300882,/gps,1,12,40.2676678333,-111.634953333,1491.4,0.663633333333,3.66606409381,0.5476
1511903357428850196,812,1511903357427499055,/gps,1,12,40.2676685,-111.634952167,1491.4,0.617847777777,3.66606409381,0.5476
1511903357629156550,813,1511903357627739906,/gps,1,12,40.2676691667,-111.634951333,1491.4,0.542738888888,3.66606409381,0.5476
1511903357828974206,814,1511903357827724933,/gps,1,12,40.2676698333,-111.634950667,1491.4,0.515987777777,3.66606409381,0.5476
1511903358024260508,815,1511903358023428916,/gps,1,12,40.2676708333,-111.634949667,1491.4,0.612188888888,3.66606409381,0.5476
1511903358227565873,816,1511903358226486921,/gps,1,12,40.267672,-111.634948833,1491.4,0.663633333333,3.66606409381,0.5476
1511903358428955560,817,1511903358427453994,/gps,1,12,40.267673,-111.634948167,1491.3,0.511872222222,3.66606409381,0.5476
1511903358628170716,818,1511903358626701116,/gps,1,12,40.267674,-111.634947167,1491.2,0.482034444444,3.66606409381,0.5476
1511903358829871550,819,1511903358828145980,/gps,1,12,40.2676746667,-111.634945833,1491.2,0.661061111111,3.66606409381,0.5476
1511903359029498425,820,1511903359028148889,/gps,1,12,40.2676753333,-111.634944167,1491.1,0.832885555555,2.73196387815,0.5476
1511903359230460977,821,1511903359229177951,/gps,1,12,40.2676758333,-111.634942333,1491.1,0.803562222222,1.98164683271,0.5476
1511903359424802852,822,1511903359423836946,/gps,1,12,40.2676765,-111.634941167,1491.1,0.547368888888,1.98164683271,0.5476
1511903359628958060,823,1511903359627841949,/gps,1,12,40.267677,-111.634940333,1491.1,0.506213333333,1.98164683271,0.5476
1511903359828916810,824,1511903359827721118,/gps,1,12,40.2676775,-111.6349395,1491.1,0.638939999999,1.98164683271,0.5476
1511903360031997226,825,1511903360029797077,/gps,1,12,40.2676786667,-111.634938333,1491.1,0.845232222221,1.35455003247,0.5476
1511903360229237278,826,1511903360226712942,/gps,1,12,40.2676796667,-111.634937,1491.1,0.785556666666,1.35455003247,0.5476
1511903360429920143,827,1511903360427162885,/gps,1,12,40.2676805,-111.634935833,1491.1,0.596241111111,1.35455003247,0.5476
1511903360630155351,828,1511903360627058982,/gps,1,12,40.2676808333,-111.634934333,1491.0,0.773724444444,1.35455003247,0.5476
1511903360825755611,829,1511903360823841094,/gps,1,12,40.2676813333,-111.634932833,1491.0,0.752117777777,1.35455003247,0.5476
1511903361028053476,830,1511903361026340961,/gps,1,12,40.2676816667,-111.634931667,1490.9,0.600356666666,1.35455003247,0.5476
1511903361228950663,831,1511903361226594924,/gps,1,12,40.2676821667,-111.6349305,1491.0,0.702216666666,1.35455003247,0.5476
1511903361427554934,832,1511903361425093889,/gps,1,12,40.2676825,-111.634929333,1491.0,0.438821111111,1.35455003247,0.5476
1511903361629705507,833,1511903361626585960,/gps,1,12,40.2676828333,-111.6349285,1491.0,0.655402222222,1.35455003247,0.5476
1511903361830520351,834,1511903361828409910,/gps,1,12,40.2676835,-111.634927,1491.0,0.751088888888,1.35455003247,0.5476
1511903362028567903,835,1511903362027189970,/gps,1,12,40.267684,-111.6349255,1491.0,0.475861111111,1.35455003247,0.5476
1511903362223974205,836,1511903362222588062,/gps,1,12,40.2676846667,-111.634924667,1491.0,0.403324444444,1.35455003247,0.5476
1511903362427391132,837,1511903362426352977,/gps,1,12,40.267685,-111.634923833,1491.0,0.405896666666,1.35455003247,0.5476
1511903362627581027,838,1511903362626364946,/gps,1,12,40.2676856667,-111.6349225,1491.0,0.583379999999,1.35455003247,0.5476
1511903362828355350,839,1511903362827152967,/gps,1,12,40.2676865,-111.634921167,1491.0,0.618362222222,1.35455003247,0.5476
1511903363025323631,840,1511903363024347066,/gps,1,12,40.2676876667,-111.63492,1491.2,0.645627777777,1.35455003247,0.5476
1511903363227631236,841,1511903363226444005,/gps,1,12,40.2676881667,-111.634918833,1491.2,0.406925555555,1.35455003247,0.5476
1511903363427743058,842,1511903363426723003,/gps,1,12,40.2676885,-111.634918,1491.1,0.252077777778,1.35455003247,0.5476
1511903363624817433,843,1511903363623720884,/gps,1,12,40.2676888333,-111.6349175,1491.1,0.361654444444,1.35455003247,0.5476
1511903363827724256,844,1511903363826503038,/gps,1,12,40.267689,-111.634917,1491.1,0.121408888889,1.35455003247,0.5476
1511903364028485610,845,1511903364027283906,/gps,1,12,40.2676891667,-111.634916667,1491.2,0.434705555555,1.35455003247,0.5476
1511903364227636860,846,1511903364226461887,/gps,1,12,40.2676898333,-111.634916,1491.2,0.473803333333,1.35455003247,0.5476
1511903364428055714,847,1511903364426510095,/gps,1,12,40.2676905,-111.6349155,1491.2,0.415671111111,1.35455003247,0.5476
1511903364626918423,848,1511903364625541925,/gps,1,12,40.267691,-111.634914833,1491.2,0.322556666666,1.35455003247,0.5476
1511903364825891235,849,1511903364824505090,/gps,1,12,40.2676913333,-111.634914,1491.2,0.418243333333,1.35455003247,0.5476
1511903365029607016,850,1511903365026349067,/gps,1,12,40.2676918333,-111.634913167,1491.3,0.43522,1.35455003247,0.5476
1511903365230924881,851,1511903365227336883,/gps,1,12,40.2676926667,-111.634912167,1491.3,0.541195555555,1.35455003247,0.5476
1511903365433198318,852,1511903365426872968,/gps,1,12,40.267693,-111.634911,1491.3,0.429046666666,1.35455003247,0.5476
1511903365629631755,853,1511903365627470016,/gps,1,12,40.2676931667,-111.634910167,1491.3,0.173882222222,1.35455003247,0.5476
1511903365828847589,854,1511903365827131986,/gps,1,12,40.267693,-111.634909667,1491.3,0.0972299999999,1.35455003247,0.5476
1511903366029007276,855,1511903366026809930,/gps,1,12,40.2676926667,-111.634909833,1491.3,0.217095555555,1.35455003247,0.5476
1511903366230888161,856,1511903366227766990,/gps,1,12,40.2676925,-111.634909667,1491.2,0.107518888889,1.35455003247,0.5476
1511903366430378682,857,1511903366427169084,/gps,1,12,40.2676923333,-111.6349095,1491.2,0.0601899999999,1.35455003247,0.5476
1511903366628731495,858,1511903366626533985,/gps,1,12,40.2676921667,-111.634909333,1491.3,0.0889988888888,1.35455003247,0.5476
1511903366829701026,859,1511903366827234029,/gps,1,12,40.2676918333,-111.634909,1491.2,0.0972299999999,1.35455003247,0.5476
1511903367029232745,860,1511903367026562929,/gps,1,12,40.2676916667,-111.6349085,1491.2,0.0884844444444,1.35455003247,0.5476
1511903367230012432,861,1511903367227442979,/gps,1,12,40.2676913333,-111.634907667,1491.2,0.145587777778,1.35455003247,0.5476
1511903367428495869,862,1511903367427426099,/gps,1,12,40.2676908333,-111.634906833,1491.2,0.111634444444,1.35455003247,0.5476
1511903367625576598,863,1511903367624085903,/gps,1,12,40.2676908333,-111.634906667,1491.3,0.0745944444444,1.35455003247,0.5476
1511903367827795661,864,1511903367826494932,/gps,1,12,40.2676908333,-111.634906167,1491.3,0.100831111111,1.35455003247,0.5476
1511903368028008890,865,1511903368026576995,/gps,1,12,40.2676908333,-111.634905667,1491.3,0.0246933333333,1.35455003247,0.5476
1511903368230129150,866,1511903368228761911,/gps,1,12,40.2676908333,-111.634905,1491.3,0.0483577777777,1.35455003247,0.5476
1511903368427741598,867,1511903368426050901,/gps,1,12,40.2676908333,-111.634904333,1491.3,0.0524733333333,1.35455003247,0.5476
1511903368627593213,868,1511903368626194000,/gps,1,12,40.2676908333,-111.6349035,1491.3,0.0169766666667,1.35455003247,0.5476
1511903368828967171,869,1511903368827579975,/gps,1,12,40.2676906667,-111.6349025,1491.3,0.109062222222,1.35455003247,0.5476
1511903369024772848,870,1511903369023319005,/gps,1,12,40.2676906667,-111.634901833,1491.3,0.10649,1.35455003247,0.5476
1511903369228641181,871,1511903369227000951,/gps,1,12,40.2676905,-111.634900833,1491.3,0.100831111111,1.35455003247,0.5476
1511903369430031442,872,1511903369428105115,/gps,1,12,40.2676903333,-111.634899667,1491.4,0.0956866666666,1.35455003247,0.5476
1511903369629693369,873,1511903369628478050,/gps,1,12,40.2676901667,-111.634899167,1491.4,0.241274444444,1.35455003247,0.5476
1511903369829061598,874,1511903369828099966,/gps,1,12,40.26769,-111.634898833,1491.4,0.0905422222221,1.35455003247,0.5476
1511903370032550452,875,1511903370028549909,/gps,1,12,40.26769,-111.634898,1491.4,0.100316666667,1.35455003247,0.5476
1511903370230510452,876,1511903370228451013,/gps,1,12,40.26769,-111.634897167,1491.4,0.0879699999999,1.35455003247,0.5476
1511903370427174566,877,1511903370425120115,/gps,1,12,40.2676896667,-111.634896,1491.4,0.0617333333333,1.35455003247,0.5476
1511903370632746910,878,1511903370629204988,/gps,1,12,40.2676896667,-111.634895333,1491.4,0.0756233333333,1.35455003247,0.5476
1511903370830703837,879,1511903370828293085,/gps,1,12,40.2676896667,-111.634894833,1491.4,0.0586466666666,1.35455003247,0.5476
1511903371029720555,880,1511903371028290033,/gps,1,12,40.2676895,-111.634894667,1491.4,0.123466666667,1.35455003247,0.5476
1511903371230945660,881,1511903371228334903,/gps,1,12,40.2676891667,-111.634894333,1491.4,0.0853977777777,1.35455003247,0.5476
1511903371429759514,882,1511903371427900075,/gps,1,12,40.2676891667,-111.634893833,1491.4,0.195488888889,1.35455003247,0.5476
1511903371631984618,883,1511903371628968954,/gps,1,12,40.2676891667,-111.634893167,1491.4,0.00925999999999,1.35455003247,0.5476
1511903371827245139,884,1511903371825105905,/gps,1,12,40.2676891667,-111.634892167,1491.3,0.131183333333,1.35455003247,0.5476
1511903372030200659,885,1511903372028198957,/gps,1,12,40.267689,-111.634891167,1491.3,0.144044444444,1.35455003247,0.5476
1511903372230706649,886,1511903372227873086,/gps,1,12,40.2676886667,-111.634890333,1491.2,0.127067777778,1.35455003247,0.5476
1511903372428574149,887,1511903372427577018,/gps,1,12,40.2676883333,-111.6348895,1491.2,0.15279,1.35455003247,0.5476
1511903372628029357,888,1511903372626344919,/gps,1,12,40.2676881667,-111.634889,1491.1,0.198575555555,1.35455003247,0.5476
1511903372829381805,889,1511903372827851057,/gps,1,12,40.2676881667,-111.634888667,1491.1,0.03241,1.35455003247,0.5476
1511903373027277586,890,1511903373026304960,/gps,1,12,40.2676881667,-111.634888333,1491.1,0.0288088888889,1.35455003247,0.5476
1511903373225060034,891,1511903373223417043,/gps,1,12,40.267688,-111.634888167,1491.0,0.24539,1.35455003247,0.5476
1511903373428480398,892,1511903373427295923,/gps,1,12,40.2676876667,-111.634888167,1491.0,0.215037777778,1.35455003247,0.5476
1511903373629680346,893,1511903373628035068,/gps,1,12,40.2676875,-111.634888167,1490.9,0.154847777778,1.35455003247,0.5476
1511903373828155919,894,1511903373826606035,/gps,1,12,40.2676871667,-111.634888,1490.9,0.263395555555,1.35455003247,0.5476
1511903374028207690,895,1511903374026556968,/gps,1,12,40.267687,-111.634888,1490.9,0.04167,1.35455003247,0.5476
1511903374227507898,896,1511903374226057052,/gps,1,12,40.2676868333,-111.634888,1490.9,0.201662222222,1.35455003247,0.5476
1511903374427589148,897,1511903374426137924,/gps,1,12,40.2676865,-111.634888167,1490.9,0.204748888889,1.35455003247,0.5476
1511903374624380554,898,1511903374623020887,/gps,1,12,40.2676863333,-111.634888,1490.9,0.0859122222221,1.35455003247,0.5476
1511903374829847481,899,1511903374828510999,/gps,1,12,40.2676861667,-111.634888,1490.9,0.187257777778,1.35455003247,0.5476
1511903375029502221,900,1511903375026993989,/gps,1,12,40.267686,-111.634888,1490.9,0.129125555555,1.35455003247,0.5476
1511903375229754043,901,1511903375227288007,/gps,1,12,40.267686,-111.634888167,1491.0,0.0936288888888,1.35455003247,0.5476
1511903375429947481,902,1511903375427669048,/gps,1,12,40.267686,-111.634888,1491.0,0.0334388888889,1.35455003247,0.5476
1511903375629379772,903,1511903375627204895,/gps,1,12,40.2676861667,-111.634888,1491.1,0.144558888889,1.35455003247,0.5476
1511903375829321595,904,1511903375827001094,/gps,1,12,40.2676861667,-111.634887833,1491.0,0.128096666667,1.35455003247,0.5476
1511903376026249720,905,1511903376023855924,/gps,1,12,40.267686,-111.634887667,1491.0,0.0607044444444,1.35455003247,0.5476
1511903376230223835,906,1511903376227938890,/gps,1,12,40.267686,-111.6348875,1491.1,0.12038,1.35455003247,0.5476
1511903376429452272,907,1511903376427063941,/gps,1,12,40.267686,-111.634887333,1491.1,0.00977444444444,1.35455003247,0.5476
1511903376632183783,908,1511903376629812955,/gps,1,12,40.267686,-111.634887167,1491.2,0.0931144444444,1.35455003247,0.5476
1511903376830037793,909,1511903376827519893,/gps,1,12,40.2676863333,-111.634887,1491.2,0.0385833333333,1.35455003247,0.5476
1511903377029315397,910,1511903377026839017,/gps,1,12,40.2676866667,-111.634886833,1491.2,0.0715077777777,1.35455003247,0.5476
1511903377230849720,911,1511903377228312969,/gps,1,12,40.267687,-111.634886667,1491.2,0.153818888889,1.35455003247,0.5476
1511903377427016282,912,1511903377424494981,/gps,1,12,40.2676873333,-111.634886333,1491.2,0.073051111111,1.35455003247,0.5476
1511903377629617011,913,1511903377626864910,/gps,1,12,40.2676873333,-111.634886,1491.2,0.0884844444444,1.35455003247,0.5476
1511903377829924720,914,1511903377827472925,/gps,1,12,40.2676875,-111.634885667,1491.2,0.109062222222,1.35455003247,0.5476
1511903378029990084,915,1511903378027616977,/gps,1,12,40.2676876667,-111.634885167,1491.2,0.139414444444,1.35455003247,0.5476
1511903378230126334,916,1511903378227819919,/gps,1,12,40.2676878333,-111.634884667,1491.2,0.0468144444444,1.35455003247,0.5476
1511903378431086751,917,1511903378428843975,/gps,1,12,40.2676878333,-111.634884667,1491.2,0.0118322222222,1.35455003247,0.5476
1511903378630702688,918,1511903378627557992,/gps,1,12,40.2676878333,-111.6348845,1491.2,0.01852,1.35455003247,0.5476
1511903378830344198,919,1511903378827649116,/gps,1,12,40.2676878333,-111.634884333,1491.1,0.0704788888888,1.35455003247,0.5476
1511903379030223990,920,1511903379027868986,/gps,1,12,40.2676876667,-111.634884,1491.1,0.133755555555,1.35455003247,0.5476
1511903379230664354,921,1511903379228038072,/gps,1,12,40.2676875,-111.634883833,1491.1,0.0540166666666,1.35455003247,0.5476
1511903379431017063,922,1511903379428514957,/gps,1,12,40.2676875,-111.634883667,1491.1,0.0452711111111,1.35455003247,0.5476
1511903379632425552,923,1511903379629657983,/gps,1,12,40.2676873333,-111.634883667,1491.1,0.0504155555555,1.35455003247,0.5476
1511903379830222219,924,1511903379827744960,/gps,1,12,40.2676871667,-111.634883833,1491.1,0.0385833333333,1.35455003247,0.5476
1511903380028531594,925,1511903380026027917,/gps,1,12,40.2676871667,-111.634884,1491.0,0.096201111111,1.35455003247,0.5476
1511903380230066385,926,1511903380227588891,/gps,1,12,40.2676871667,-111.634884333,1491.1,0.194974444444,1.35455003247,0.5476
1511903380433412687,927,1511903380431021928,/gps,1,12,40.267687,-111.6348845,1491.0,0.154847777778,1.35455003247,0.5476
1511903380630149041,928,1511903380627599000,/gps,1,12,40.2676866667,-111.634884833,1491.0,0.0149188888889,1.35455003247,0.5476
1511903380831256750,929,1511903380828521013,/gps,1,12,40.2676863333,-111.6348855,1491.0,0.0895133333333,1.35455003247,0.5476
1511903381030780031,930,1511903381028485059,/gps,1,12,40.2676861667,-111.634886167,1490.9,0.0360111111111,1.35455003247,0.5476
1511903381230492010,931,1511903381228468894,/gps,1,12,40.2676858333,-111.634886667,1490.9,0.0560744444444,1.35455003247,0.5476
1511903381427693781,932,1511903381425111055,/gps,1,12,40.2676856667,-111.634887,1490.8,0.0354966666666,1.35455003247,0.5476
1511903381630554458,933,1511903381629229068,/gps,1,12,40.2676856667,-111.634887333,1490.8,0.127067777778,1.35455003247,0.5476
1511903381829471072,934,1511903381828169107,/gps,1,12,40.2676856667,-111.6348875,1490.8,0.102374444444,1.35455003247,0.5476
1511903382029301749,935,1511903382027971982,/gps,1,12,40.2676855,-111.6348875,1490.7,0.0900277777777,1.35455003247,0.5476
1511903382229300655,936,1511903382228028059,/gps,1,12,40.2676851667,-111.634887667,1490.7,0.0190344444444,1.35455003247,0.5476
1511903382430090603,937,1511903382428839921,/gps,1,12,40.267685,-111.634887833,1490.7,0.155362222222,1.35455003247,0.5476
1511903382629857582,938,1511903382628393888,/gps,1,12,40.2676846667,-111.634888,1490.6,0.086941111111,1.35455003247,0.5476
1511903382827737634,939,1511903382825586080,/gps,1,12,40.2676843333,-111.634888,1490.5,0.0936288888888,1.35455003247,0.5476
1511903383029949874,940,1511903383028177976,/gps,1,12,40.2676841667,-111.634888167,1490.5,0.0617333333333,1.35455003247,0.5476
1511903383230073311,941,1511903383228373050,/gps,1,12,40.2676838333,-111.634888333,1490.5,0.108033333333,1.35455003247,0.5476
1511903383429478988,942,1511903383428311109,/gps,1,12,40.267684,-111.634888333,1490.5,0.258251111111,1.35455003247,0.5476
1511903383628982894,943,1511903383627474069,/gps,1,12,40.2676843333,-111.634888167,1490.4,0.219667777778,1.35455003247,0.5476
1511903383831246592,944,1511903383828548908,/gps,1,12,40.2676846667,-111.634888,1490.4,0.301978888889,1.35455003247,0.5476
1511903384028898571,945,1511903384027123928,/gps,1,12,40.2676848333,-111.634887667,1490.4,0.1389,1.35455003247,0.5476
1511903384226580915,946,1511903384222908973,/gps,1,12,40.2676846667,-111.6348875,1490.4,0.0807677777777,1.35455003247,0.5476
1511903384428876905,947,1511903384427825927,/gps,1,12,40.2676845,-111.634887333,1490.4,0.0998022222221,1.35455003247,0.5476
1511903384628898259,948,1511903384627444982,/gps,1,12,40.2676841667,-111.6348875,1490.3,0.175425555555,1.35455003247,0.5476
1511903384832235081,949,1511903384828485012,/gps,1,12,40.2676841667,-111.6348875,1490.4,0.116264444444,1.35455003247,0.5476
1511903385030498311,950,1511903385028678894,/gps,1,12,40.2676843333,-111.634887333,1490.4,0.163078888889,1.35455003247,0.5476
1511903385231824665,951,1511903385229588985,/gps,1,12,40.2676843333,-111.634887167,1490.4,0.122952222222,1.35455003247,0.5476
1511903385431686123,952,1511903385429289102,/gps,1,12,40.2676843333,-111.634887333,1490.4,0.073051111111,1.35455003247,0.5476
1511903385625108935,953,1511903385624228000,/gps,1,12,40.2676841667,-111.634887667,1490.4,0.130668888889,1.35455003247,0.5476
1511903385829992373,954,1511903385828187942,/gps,1,12,40.2676838333,-111.634887833,1490.4,0.0967155555555,1.35455003247,0.5476
1511903386030050133,955,1511903386028264999,/gps,1,12,40.2676833333,-111.634888333,1490.3,0.118322222222,1.35455003247,0.5476
1511903386229309248,956,1511903386227957963,/gps,1,12,40.267683,-111.634888667,1490.2,0.104432222222,1.35455003247,0.5476
1511903386429118362,957,1511903386427668094,/gps,1,12,40.2676825,-111.634889167,1490.2,0.0344677777777,1.35455003247,0.5476
1511903386629073102,958,1511903386627614021,/gps,1,12,40.2676821667,-111.63489,1490.2,0.1389,1.35455003247,0.5476
1511903386829930758,959,1511903386828171968,/gps,1,12,40.2676818333,-111.634891,1490.1,0.0771666666666,1.35455003247,0.5476
1511903387025364768,960,1511903387023857116,/gps,1,12,40.2676816667,-111.634892,1490.1,0.100831111111,1.35455003247,0.5476
1511903387228151851,961,1511903387227273941,/gps,1,12,40.2676811667,-111.634893333,1490.1,0.0668777777777,1.35455003247,0.5476
1511903387429083987,962,1511903387428122043,/gps,1,12,40.2676803333,-111.634895,1490.0,0.0653344444444,1.35455003247,0.5476
1511903387629379455,963,1511903387627909898,/gps,1,12,40.2676796667,-111.634896333,1489.9,0.0195488888889,1.35455003247,0.5476
1511903387828322216,964,1511903387826894998,/gps,1,12,40.2676788333,-111.634898,1489.9,0.0920855555555,1.35455003247,0.5476
1511903388028520705,965,1511903388027615070,/gps,1,12,40.267678,-111.634899167,1489.7,0.0663633333333,1.35455003247,0.5476
1511903388229135653,966,1511903388227595090,/gps,1,12,40.2676773333,-111.634900167,1489.6,0.0607044444444,1.35455003247,0.5476
1511903388425534091,967,1511903388424284934,/gps,1,12,40.2676766667,-111.634901333,1489.5,0.0272655555555,1.35455003247,0.5476
1511903388629002893,968,1511903388627650976,/gps,1,12,40.2676763333,-111.6349025,1489.5,0.0905422222221,1.35455003247,0.5476
1511903388828411955,969,1511903388827255010,/gps,1,12,40.2676756667,-111.6349035,1489.4,0.127582222222,1.35455003247,0.5476
1511903389027745184,970,1511903389026593923,/gps,1,12,40.2676753333,-111.6349045,1489.3,0.0817966666666,1.35455003247,0.5476
1511903389228400705,971,1511903389226686954,/gps,1,12,40.267675,-111.634905,1489.2,0.0668777777777,1.35455003247,0.5476
