%time,field.header.seq,field.header.stamp,field.header.frame_id,field.fix,field.NumSat,field.latitude,field.longitude,field.altitude,field.speed,field.ground_course,field.covariance
1511904497842401896,646,1511904497839673042,/gps,1,12,40.2674385,-111.635742833,1490.6,1.02734555555,3.64023322088,0.36
1511904498042073094,647,1511904498039453983,/gps,1,12,40.2674363333,-111.6357435,1490.5,1.51452444444,3.49257836617,0.3844
1511904498240063615,648,1511904498238912105,/gps,1,12,40.267434,-111.635743833,1490.5,1.19402555555,3.44301101541,0.4489
1511904498440099032,649,1511904498439126014,/gps,1,12,40.2674318333,-111.635744667,1490.5,1.44919,3.46255870303,0.4489
1511904498640934761,650,1511904498638335943,/gps,1,12,40.2674295,-111.635745333,1490.4,1.38231222222,3.4360296984,0.4489
1511904498842593771,651,1511904498839863061,/gps,1,12,40.267427,-111.635745833,1490.4,1.41986666667,3.35626815159,0.4489
1511904499039770854,652,1511904499038773059,/gps,1,12,40.2674245,-111.635746333,1490.4,1.50423555555,3.39012753907,0.4489
1511904499235592313,653,1511904499234587907,/gps,1,12,40.2674221667,-111.635747,1490.4,1.27788,3.38105182696,0.4489
1511904499439862156,654,1511904499438636064,/gps,1,12,40.26742,-111.6357475,1490.3,1.19917,3.43236450697,0.4489
1511904499640584865,655,1511904499637732982,/gps,1,12,40.267418,-111.635748167,1490.3,1.22849333333,3.41403854983,0.4489
1511904499841403719,656,1511904499838244915,/gps,1,12,40.2674163333,-111.635748333,1490.3,0.845232222221,3.33253167376,0.4489
1511904500043168198,657,1511904500038652896,/gps,1,12,40.2674146667,-111.635748333,1490.3,1.07827555555,3.32293236287,0.4489
1511904500240636687,658,1511904500238992929,/gps,1,12,40.2674133333,-111.6357485,1490.3,0.642541111111,3.28191712545,0.4489
1511904500443193875,659,1511904500438734054,/gps,1,12,40.2674126667,-111.635748333,1490.3,0.417728888889,3.28191712545,0.4489
1511904500640298197,660,1511904500635518074,/gps,1,12,40.2674123333,-111.635748167,1490.3,0.262366666666,3.28191712545,0.4225
1511904500843301166,661,1511904500838782072,/gps,1,12,40.2674123333,-111.635747833,1490.3,0.195488888889,3.28191712545,0.4225
1511904501045114343,662,1511904501039962053,/gps,1,12,40.2674121667,-111.6357475,1490.4,0.358053333333,3.28191712545,0.4225
1511904501241588093,663,1511904501239684104,/gps,1,12,40.2674118333,-111.635747,1490.5,0.336961111111,3.28191712545,0.4225
1511904501441386426,664,1511904501440062046,/gps,1,12,40.2674118333,-111.6357465,1490.5,0.129125555555,3.28191712545,0.4225
1511904501642678978,665,1511904501640136957,/gps,1,12,40.2674121667,-111.635746,1490.6,0.077681111111,3.28191712545,0.4225
1511904501841141947,666,1511904501838440895,/gps,1,12,40.2674125,-111.635745833,1490.6,0.0977444444444,3.28191712545,0.4225
1511904502039688666,667,1511904502037513971,/gps,1,12,40.267413,-111.635745333,1490.6,0.100316666667,3.28191712545,0.4225
1511904502241828926,668,1511904502239253997,/gps,1,12,40.267413,-111.635745333,1490.6,0.091571111111,3.28191712545,0.4225
1511904502441785228,669,1511904502439378976,/gps,1,12,40.2674128333,-111.6357455,1490.6,0.0740799999999,3.28191712545,0.4225
1511904502641548561,670,1511904502639081954,/gps,1,12,40.2674126667,-111.635746,1490.6,0.0576177777777,3.28191712545,0.4225
1511904502843058457,671,1511904502840107917,/gps,1,12,40.2674125,-111.635746167,1490.6,0.125524444444,3.28191712545,0.4225
1511904503042138926,672,1511904503040203094,/gps,1,12,40.2674125,-111.635746167,1490.6,0.0159477777778,3.28191712545,0.4225
1511904503243512103,673,1511904503240472078,/gps,1,12,40.2674123333,-111.635746167,1490.6,0.0586466666666,3.28191712545,0.4225
1511904503440591165,674,1511904503436984062,/gps,1,12,40.2674125,-111.635746333,1490.6,0.109062222222,3.28191712545,0.4225
1511904503642004394,675,1511904503639151096,/gps,1,12,40.2674128333,-111.635746333,1490.6,0.0699644444444,3.28191712545,0.4225
1511904503840121582,676,1511904503838922977,/gps,1,12,40.267413,-111.635746333,1490.6,0.0581322222222,3.28191712545,0.4225
1511904504040745488,677,1511904504038851976,/gps,1,12,40.267413,-111.635746333,1490.6,0.0601899999999,3.28191712545,0.4225
1511904504239277415,678,1511904504237325906,/gps,1,12,40.267413,-111.635746167,1490.6,0.0468144444444,3.28191712545,0.4225
1511904504441455852,679,1511904504439543008,/gps,1,12,40.2674131667,-111.635746167,1490.6,0.0488722222222,3.28191712545,0.4225
1511904504640330956,680,1511904504638402938,/gps,1,12,40.2674135,-111.635746,1490.6,0.17131,3.28191712545,0.4225
1511904504836755956,681,1511904504834815025,/gps,1,12,40.2674138333,-111.635745833,1490.6,0.0931144444444,3.28191712545,0.4225
1511904505041373040,682,1511904505039144992,/gps,1,12,40.267414,-111.635745667,1490.5,0.0329244444444,3.28191712545,0.4225
1511904505241151060,683,1511904505238492012,/gps,1,12,40.2674143333,-111.635745,1490.5,0.0216066666666,3.28191712545,0.4225
1511904505443116269,684,1511904505440469980,/gps,1,12,40.2674146667,-111.635744333,1490.4,0.0817966666666,3.28191712545,0.4225
1511904505642752518,685,1511904505639645099,/gps,1,12,40.2674148333,-111.635744,1490.4,0.0576177777777,3.28191712545,0.4225
1511904505844803196,686,1511904505841691970,/gps,1,12,40.2674143333,-111.635743833,1490.4,0.620419999999,3.37389597703,0.4225
1511904506043093039,687,1511904506041106939,/gps,1,12,40.2674131667,-111.635744,1490.3,0.823625555555,3.46308230181,0.4225
1511904506242141633,688,1511904506238826036,/gps,1,12,40.2674111667,-111.635744333,1490.3,1.23158,3.3037337411,0.4225
1511904506444990383,689,1511904506442070007,/gps,1,12,40.2674088333,-111.635743833,1490.3,1.37150888889,3.22362312843,0.4225
1511904506645967258,690,1511904506643145084,/gps,1,12,40.267406,-111.6357435,1490.3,1.63593333333,3.25852971347,0.4225
1511904506843962883,691,1511904506841145038,/gps,1,12,40.2674028333,-111.635743667,1490.3,1.91836333333,3.22083060163,0.4225
1511904507043347883,692,1511904507040638923,/gps,1,12,40.2673996667,-111.635743333,1490.3,1.52841444444,3.12274309767,0.4225
1511904507243958091,693,1511904507241220951,/gps,1,12,40.2673966667,-111.635742667,1490.3,1.76968888889,3.06828882501,0.4225
1511904507446032778,694,1511904507442981004,/gps,1,12,40.2673936667,-111.6357425,1490.3,1.64107777778,3.08015706392,0.4225
1511904507640433403,695,1511904507638181924,/gps,1,12,40.2673906667,-111.635742333,1490.3,1.79644,3.09499236256,0.4225
1511904507843098351,696,1511904507840065956,/gps,1,12,40.2673875,-111.635742333,1490.3,1.66885777778,3.09603956011,0.4225
1511904508042137309,697,1511904508039752006,/gps,1,12,40.2673845,-111.635742,1490.3,1.59992222222,3.04926473616,0.4225
1511904508243074913,698,1511904508240328073,/gps,1,12,40.2673816667,-111.635741333,1490.2,1.55876666667,3.07230308229,0.4225
1511904508442775903,699,1511904508440032958,/gps,1,12,40.2673788333,-111.635741,1490.3,1.52584222222,3.08434585412,0.4225
1511904508642555747,700,1511904508640352964,/gps,1,12,40.267376,-111.635740333,1490.2,1.62976,3.08958184188,0.4225
1511904508842845694,701,1511904508840584993,/gps,1,12,40.2673735,-111.6357395,1490.1,1.20534333333,3.06183110677,0.4225
1511904509042900017,702,1511904509038358926,/gps,1,12,40.267371,-111.635739,1490.1,1.55722333333,3.00912216336,0.4225
1511904509241785069,703,1511904509239996910,/gps,1,12,40.2673683333,-111.635738,1490.0,1.4353,2.9775317039,0.4225
1511904509445749652,704,1511904509440687894,/gps,1,12,40.2673658333,-111.635737333,1490.0,1.25524444444,3.02674998881,0.4225
1511904509643524548,705,1511904509640976905,/gps,1,12,40.2673631667,-111.635737167,1490.0,1.52481333333,3.05362805929,0.4225
1511904509843791996,706,1511904509840286970,/gps,1,12,40.26736,-111.635737,1490.0,1.69663777778,3.05956217875,0.4225
1511904510048627517,707,1511904510040913105,/gps,1,12,40.267357,-111.6357375,1490.0,1.57317111111,3.06567083113,0.4225
1511904510241414965,708,1511904510239974975,/gps,1,12,40.2673538333,-111.635737333,1490.0,1.63284666667,3.08225145902,0.4225
1511904510450092673,709,1511904510448929071,/gps,1,12,40.2673508333,-111.6357375,1490.0,1.62821666667,3.1506683657,0.4225
1511904510638882465,710,1511904510637672901,/gps,1,12,40.2673476667,-111.635737833,1490.0,1.72030222222,3.20948596149,0.4225
1511904510840799235,711,1511904510839742898,/gps,1,12,40.2673448333,-111.635737833,1490.0,1.49188888889,3.18854201047,0.4225
1511904511039304860,712,1511904511038274049,/gps,1,12,40.267342,-111.635737667,1489.9,1.71567222222,3.15538075468,0.4225
1511904511238327308,713,1511904511237540960,/gps,1,12,40.267339,-111.6357375,1489.9,1.68532,3.12099776842,0.4225
1511904511441960225,714,1511904511438880920,/gps,1,12,40.2673361667,-111.635737833,1489.9,1.52069777778,3.20512263836,0.4225
1511904511638222308,715,1511904511636612892,/gps,1,12,40.2673333333,-111.6357385,1489.8,1.71464333333,3.25538812082,0.4225
1511904511842288454,716,1511904511839194059,/gps,1,12,40.2673305,-111.635739,1489.8,1.51812555555,3.22711378694,0.4225
1511904512041248922,717,1511904512038228988,/gps,1,12,40.2673276667,-111.6357395,1489.8,1.71207111111,3.28942204123,0.4225
1511904512240114131,718,1511904512238574981,/gps,1,12,40.2673248333,-111.635740167,1489.7,1.56596888889,3.32013983607,0.4225
1511904512439973349,719,1511904512438730955,/gps,1,12,40.2673221667,-111.635741,1489.7,1.61587,3.39134926955,0.4225
1511904512638797360,720,1511904512637837886,/gps,1,12,40.2673196667,-111.635741667,1489.6,1.57780111111,3.35417375648,0.4225
1511904512838669443,721,1511904512837769031,/gps,1,12,40.267317,-111.635742,1489.6,1.52018333333,3.28994564001,0.4225
1511904513035745328,722,1511904513034781932,/gps,1,12,40.267314,-111.635742,1489.5,1.79849777778,3.26027504273,0.4225
1511904513239186422,723,1511904513238280057,/gps,1,12,40.267311,-111.635742,1489.5,1.51503888889,3.23898202585,0.4225
1511904513439651318,724,1511904513438484907,/gps,1,12,40.2673076667,-111.635742333,1489.5,2.09944777778,3.30076668137,0.4225
1511904513638340536,725,1511904513637011051,/gps,1,12,40.2673041667,-111.635742667,1489.5,1.74962555555,3.29587975947,0.4489
1511904513838152411,726,1511904513836725950,/gps,1,12,40.2673013333,-111.635743167,1489.5,1.53355888889,3.30460640573,0.4489
1511904514038044078,727,1511904514036813020,/gps,1,12,40.2672983333,-111.635743667,1489.5,1.74551,3.26708182681,0.4489
1511904514237486161,728,1511904514236097097,/gps,1,12,40.2672953333,-111.635744167,1489.5,1.59529222222,3.31577651294,0.4489
1511904514433248348,729,1511904514432140111,/gps,1,12,40.2672923333,-111.635745,1489.5,1.75837111111,3.33654593104,0.4489
1511904514638643348,730,1511904514637228965,/gps,1,12,40.2672895,-111.635745667,1489.5,1.54384777778,3.35539548696,0.4489
1511904514838427775,731,1511904514837299108,/gps,1,12,40.2672866667,-111.6357465,1489.5,1.56854111111,3.3480651041,0.4489
1511904515041656942,732,1511904515036695003,/gps,1,12,40.2672836667,-111.6357475,1489.5,1.7131,3.34841416995,0.4489
1511904515243108296,733,1511904515238141059,/gps,1,12,40.2672806667,-111.635748667,1489.5,1.49909111111,3.38087729404,0.4489
1511904515438641473,734,1511904515436544895,/gps,1,12,40.267278,-111.635749667,1489.4,1.68995,3.390302072,0.4489
1511904515638449181,735,1511904515636467933,/gps,1,12,40.2672748333,-111.635750333,1489.4,1.61535555555,3.35487188818,0.4489
1511904515836110015,736,1511904515833728075,/gps,1,12,40.2672716667,-111.635751167,1489.4,1.88183777778,3.33846579321,0.4489
1511904516043097775,737,1511904516038356065,/gps,1,12,40.2672685,-111.635752167,1489.4,1.64776555555,3.34073472124,0.4489
1511904516240286421,738,1511904516238317966,/gps,1,12,40.2672655,-111.635753333,1489.4,1.73933666667,3.37564130628,0.4489
1511904516443627671,739,1511904516438465118,/gps,1,12,40.2672623333,-111.635754667,1489.5,1.67348777778,3.39763245486,0.4489
1511904516639458139,740,1511904516637485027,/gps,1,12,40.2672596667,-111.635755833,1489.5,1.43118444444,3.40461377187,0.49
1511904516842835118,741,1511904516837676048,/gps,1,12,40.2672568333,-111.635756667,1489.5,1.78100666667,3.3438763139,0.49
1511904517039654858,742,1511904517037564039,/gps,1,12,40.2672536667,-111.6357575,1489.6,1.61844222222,3.30617720205,0.49
1511904517237023504,743,1511904517235156059,/gps,1,12,40.2672505,-111.635758333,1489.6,1.62718777778,3.36918358805,0.4489
1511904517440784285,744,1511904517438973903,/gps,1,12,40.2672478333,-111.635759667,1489.6,1.27993777778,3.4124677535,0.4225
1511904517641500691,745,1511904517639434099,/gps,1,12,40.2672458333,-111.635760667,1489.6,0.970756666666,3.46343136766,0.4225
1511904517842713660,746,1511904517839539051,/gps,1,12,40.2672436667,-111.635761667,1489.6,1.54333333333,3.39798152071,0.4225
1511904518041167722,747,1511904518039113044,/gps,1,12,40.2672408333,-111.6357625,1489.5,1.63902,3.36220227104,0.4225
1511904518240494857,748,1511904518238929986,/gps,1,12,40.2672376667,-111.635763333,1489.6,1.852,3.3702307856,0.4225
1511904518441125534,749,1511904518438786029,/gps,1,12,40.2672343333,-111.6357645,1489.6,1.89881444444,3.38942940737,0.4225
1511904518636618659,750,1511904518634418964,/gps,1,12,40.2672311667,-111.635765333,1489.7,1.58294555555,3.37791023431,0.4225
1511904518843199649,751,1511904518838579893,/gps,1,12,40.267228,-111.635766167,1489.8,2.10356333333,3.36708919295,0.4225
1511904519043178347,752,1511904519039673089,/gps,1,12,40.2672243333,-111.635767,1489.9,2.00016,3.33375340423,0.4225
1511904519241573190,753,1511904519238332986,/gps,1,12,40.2672208333,-111.635768,1490.0,2.00376111111,3.35120669675,0.4225
1511904519442933607,754,1511904519439766883,/gps,1,12,40.2672178333,-111.635769167,1490.0,1.50526444444,3.40269390969,0.4225
1511904519640857565,755,1511904519639298915,/gps,1,12,40.2672153333,-111.635770333,1490.0,1.39414444444,3.38942940737,0.4225
1511904519839125742,756,1511904519837455987,/gps,1,12,40.2672126667,-111.635771167,1490.0,1.72081666667,3.35714081621,0.4489
1511904520035861003,757,1511904520033571958,/gps,1,12,40.2672098333,-111.635771833,1490.0,1.52121222222,3.32973914695,0.4489
1511904520240188919,758,1511904520238114118,/gps,1,12,40.267207,-111.635772833,1490.1,1.71670111111,3.38524061717,0.4489
1511904520438414492,759,1511904520436759948,/gps,1,12,40.2672036667,-111.635774,1490.1,1.83913888889,3.37948103064,0.4489
1511904520638489700,760,1511904520636636972,/gps,1,12,40.2672008333,-111.635775167,1490.1,1.27582222222,3.40182124506,0.4489
1511904520838626471,761,1511904520836277008,/gps,1,12,40.2671981667,-111.635776333,1490.2,1.52429888889,3.42485959119,0.4489
1511904521037859544,762,1511904521035983085,/gps,1,12,40.2671953333,-111.6357775,1490.2,1.38128333333,3.41002429255,0.4489
1511904521236508190,763,1511904521235367059,/gps,1,12,40.2671928333,-111.635778667,1490.2,1.33086777778,3.44946873364,0.4489
1511904521434127981,764,1511904521432559013,/gps,1,12,40.2671905,-111.63578,1490.2,1.10091111111,3.5253905561,0.4489
1511904521637222669,765,1511904521636233091,/gps,1,12,40.2671881667,-111.635781167,1490.2,1.35247444444,3.4374259618,0.4489
1511904521838924439,766,1511904521837702989,/gps,1,12,40.2671853333,-111.635782167,1490.3,1.52481333333,3.46901642126,0.4489
1511904522038780116,767,1511904522036726951,/gps,1,12,40.2671825,-111.635783333,1490.3,1.47079666667,3.48210639065,0.4489
1511904522238960168,768,1511904522236769914,/gps,1,12,40.2671798333,-111.635784833,1490.3,1.51761111111,3.5655331289,0.4489
1511904522438652981,769,1511904522436722993,/gps,1,12,40.2671771667,-111.635786333,1490.3,1.55465111111,3.55261769243,0.4489
1511904522638805220,770,1511904522636979103,/gps,1,12,40.2671746667,-111.635787667,1490.3,1.40854888889,3.55994807529,0.4489
1511904522837671679,771,1511904522835571050,/gps,1,12,40.2671718333,-111.635789,1490.3,1.65548222222,3.50357394045,0.4489
1511904523038529960,772,1511904523036550998,/gps,1,12,40.2671688333,-111.635790167,1490.3,1.55773777778,3.49135663569,0.4489
1511904523239510272,773,1511904523236383914,/gps,1,12,40.2671658333,-111.6357915,1490.3,1.64930888889,3.50601740141,0.4489
1511904523438198970,774,1511904523437051057,/gps,1,12,40.2671628333,-111.635792833,1490.4,1.54693444444,3.47774306752,0.4489
1511904523639217251,775,1511904523636895895,/gps,1,12,40.2671598333,-111.635793833,1490.4,1.71464333333,3.4353315667,0.4489
1511904523838042199,776,1511904523836414098,/gps,1,12,40.2671565,-111.6357945,1490.4,1.77277555555,3.35225389431,0.4489
1511904524038172199,777,1511904524036528110,/gps,1,12,40.2671533333,-111.635795167,1490.4,1.60712444444,3.36935812098,0.4489
1511904524236688345,778,1511904524235275983,/gps,1,12,40.2671501667,-111.635796,1490.3,1.88389555555,3.37511770751,0.4489
1511904524438348293,779,1511904524436650037,/gps,1,12,40.2671466667,-111.635796667,1490.3,1.97083666666,3.30181387892,0.4489
1511904524637775740,780,1511904524636254072,/gps,1,12,40.267143,-111.635796833,1490.2,2.00684777778,3.26743089266,0.4489
1511904524839705532,781,1511904524836520910,/gps,1,12,40.2671396667,-111.635796667,1490.2,1.82679222222,3.17510297523,0.4489
1511904525042958969,782,1511904525038938999,/gps,1,12,40.2671365,-111.635796333,1490.2,1.55928111111,3.15328635958,0.4489
1511904525237889021,783,1511904525236634016,/gps,1,12,40.2671335,-111.635795833,1490.1,1.73830777778,3.09586502719,0.4489
1511904525437787094,784,1511904525436409950,/gps,1,12,40.2671305,-111.635795,1490.1,1.54744888889,3.05676965194,0.4225
1511904525638733917,785,1511904525637305021,/gps,1,12,40.2671276667,-111.635794333,1490.0,1.62564444444,3.08260052487,0.4225
1511904525840103709,786,1511904525837596893,/gps,1,12,40.2671246667,-111.635793667,1490.0,1.67657444444,3.06218017262,0.4225
1511904526039537146,787,1511904526037813901,/gps,1,12,40.2671218333,-111.635793,1490.0,1.59940777778,3.10336994297,0.4225
1511904526240735479,788,1511904526237783908,/gps,1,12,40.267119,-111.635792333,1490.0,1.57162777778,3.1084313978,0.4225
1511904526440200948,789,1511904526437944889,/gps,1,12,40.2671163333,-111.635792,1490.0,1.53716,3.15049383277,0.4225
1511904526639059542,790,1511904526637799024,/gps,1,12,40.2671133333,-111.635791833,1490.0,1.87412111111,3.12396482814,0.4225
1511904526836187875,791,1511904526834809064,/gps,1,12,40.2671103333,-111.635791167,1490.0,1.66165555555,3.08504398583,0.4225
1511904527039687302,792,1511904527038341045,/gps,1,12,40.2671075,-111.635790833,1489.9,1.57677222222,3.13722933046,0.4225
1511904527240261104,793,1511904527238635063,/gps,1,12,40.2671046667,-111.635790667,1489.9,1.74139444444,3.18278242394,0.4225
1511904527439933969,794,1511904527438584089,/gps,1,12,40.267102,-111.635790333,1489.8,1.25370111111,3.1292008159,0.4225
1511904527639976104,795,1511904527638173103,/gps,1,12,40.2670995,-111.635789667,1489.8,1.55568,3.09429423086,0.4225
1511904527841509073,796,1511904527839751005,/gps,1,12,40.2670968333,-111.635789167,1489.8,1.43118444444,3.09656315889,0.4225
1511904528039938864,797,1511904528038393974,/gps,1,12,40.2670943333,-111.635789,1489.8,1.54333333333,3.14455971332,0.4225
1511904528235754124,798,1511904528234484910,/gps,1,12,40.2670915,-111.635789,1489.7,1.52635666667,3.17161231672,0.4225
1511904528442022614,799,1511904528440268993,/gps,1,12,40.2670886667,-111.635789,1489.7,1.51143777778,3.19691959088,0.4225
1511904528639698760,800,1511904528638461112,/gps,1,12,40.2670858333,-111.635788833,1489.7,1.48365777778,3.18854201047,0.4225
1511904528839559749,801,1511904528838295936,/gps,1,12,40.2670831667,-111.635788667,1489.7,1.49086,3.16759805944,0.4225
1511904529039732770,802,1511904529038506031,/gps,1,12,40.2670803333,-111.635788833,1489.7,1.48417222222,3.23130257714,0.4225
1511904529240133603,803,1511904529238859891,/gps,1,12,40.2670775,-111.635789,1489.7,1.67143,3.22728831986,0.4225
1511904529440452197,804,1511904529439063072,/gps,1,12,40.2670743333,-111.635789167,1489.7,1.66165555555,3.22170326626,0.4225
1511904529636214280,805,1511904529635130882,/gps,1,12,40.2670711667,-111.635789333,1489.7,1.71721555555,3.21280208707,0.4225
1511904529841248863,806,1511904529839421987,/gps,1,12,40.2670678333,-111.635789333,1489.7,1.75014,3.19046187265,0.4225
1511904530041334072,807,1511904530039350032,/gps,1,12,40.2670646667,-111.6357895,1489.7,1.53561666667,3.22885911619,0.4225
1511904530242315999,808,1511904530239645004,/gps,1,12,40.267062,-111.63579,1489.7,1.48931666667,3.27493580844,0.4225
1511904530443009019,809,1511904530440691947,/gps,1,12,40.2670591667,-111.635790167,1489.7,1.63336111111,3.26027504273,0.4225
1511904530640038134,810,1511904530638664960,/gps,1,12,40.2670561667,-111.635790333,1489.7,1.6668,3.25556265375,0.4225
1511904530842544332,811,1511904530840344905,/gps,1,12,40.2670535,-111.635790667,1489.6,1.26964888889,3.28628044858,0.4225
1511904531039123290,812,1511904531036689996,/gps,1,12,40.267051,-111.635791167,1489.6,1.51246666667,3.2815680596,0.4225
1511904531241787457,813,1511904531239603996,/gps,1,12,40.267048,-111.635791667,1489.6,1.74705333333,3.29605429239,0.4225
1511904531443031727,814,1511904531440752029,/gps,1,12,40.2670451667,-111.635792333,1489.7,1.54230444444,3.29116737049,0.4225
1511904531641872821,815,1511904531639671087,/gps,1,12,40.2670421667,-111.635792833,1489.7,1.56442555555,3.30268654355,0.4225
1511904531840875842,816,1511904531838752985,/gps,1,12,40.2670393333,-111.635793667,1489.8,1.38076888889,3.23636403197,0.4225
1511904532041812196,817,1511904532039376974,/gps,1,12,40.2670366667,-111.635794167,1489.9,1.50269222222,3.27755380232,0.4225
1511904532242629904,818,1511904532240307092,/gps,1,12,40.267034,-111.635794833,1489.9,1.45587777778,3.30530453743,0.4225
1511904532440673081,819,1511904532438076972,/gps,1,12,40.2670313333,-111.6357955,1489.9,1.42243888889,3.32397956042,0.4225
1511904532642205425,820,1511904532640050888,/gps,1,12,40.2670285,-111.635796,1489.9,1.64879444444,3.28401152055,0.4225
1511904532842667873,821,1511904532840523958,/gps,1,12,40.2670256667,-111.6357965,1490.1,1.46102222222,3.26324210245,0.4225
1511904533043046779,822,1511904533040755987,/gps,1,12,40.2670225,-111.635797333,1490.0,1.74602444444,3.36220227104,0.4225
1511904533242910425,823,1511904533240776062,/gps,1,12,40.2670196667,-111.635798167,1490.0,1.42346777778,3.3487632358,0.4225
1511904533442982820,824,1511904533440794944,/gps,1,12,40.267017,-111.635798833,1490.0,1.29897222222,3.31787090804,0.4225
1511904533643620685,825,1511904533640433073,/gps,1,12,40.2670143333,-111.635799333,1490.0,1.61741333333,3.28628044858,0.4225
1511904533836278758,826,1511904533835093975,/gps,1,12,40.2670113333,-111.6358,1490.0,1.47799888889,3.22379766136,0.4225
1511904534040538393,827,1511904534039334058,/gps,1,12,40.2670086667,-111.635800167,1490.1,1.20997333333,3.21838714068,0.4225
1511904534239499747,828,1511904534238384008,/gps,1,12,40.2670063333,-111.6358005,1490.1,1.29382777778,3.23828389415,0.4225
1511904534439969695,829,1511904534438745975,/gps,1,12,40.267004,-111.635800667,1490.0,1.33086777778,3.18138616054,0.36
1511904534640231570,830,1511904534638801097,/gps,1,12,40.2670015,-111.635800667,1490.0,1.34115666667,3.16253660461,0.4225
1511904534839292612,831,1511904534838176965,/gps,1,12,40.2669988333,-111.635800833,1490.1,1.54796333333,3.12815361835,0.4225
1511904535040887924,832,1511904535038772106,/gps,1,12,40.266996,-111.635801,1490.1,1.35144555555,3.1271064208,0.4225
1511904535237655736,833,1511904535235647916,/gps,1,12,40.2669935,-111.635801333,1490.1,1.42912666667,3.17300858013,0.4225
1511904535443560320,834,1511904535440887928,/gps,1,12,40.266991,-111.635801833,1490.1,1.19917,3.24282175021,0.36
1511904535641997455,835,1511904535639599084,/gps,1,12,40.2669888333,-111.635802167,1490.1,1.14000888889,3.16986698747,0.36
1511904535840877351,836,1511904535839544057,/gps,1,12,40.2669863333,-111.635802167,1490.1,1.26553333333,3.12204496597,0.4225
1511904536041184799,837,1511904536039736986,/gps,1,12,40.2669838333,-111.6358025,1490.1,1.12251777778,3.09830848814,0.4225
1511904536240822559,838,1511904536239192962,/gps,1,12,40.2669811667,-111.635803,1490.1,1.17653444444,3.20058478231,0.36
1511904536440567819,839,1511904536439141988,/gps,1,12,40.2669783333,-111.635803667,1490.1,1.35813333333,3.194301597,0.36
1511904536638357142,840,1511904536637217044,/gps,1,12,40.266976,-111.635804167,1490.0,1.12251777778,3.1984903872,0.36
1511904536841131309,841,1511904536839744091,/gps,1,12,40.2669741667,-111.6358045,1490.0,1.14772555555,3.18348055564,0.36
1511904537040426829,842,1511904537039258003,/gps,1,12,40.2669718333,-111.6358045,1490.0,1.55207888889,3.07282668106,0.36
1511904537241350475,843,1511904537239978075,/gps,1,12,40.2669691667,-111.635804667,1490.1,1.34424333333,3.12797908542,0.36
1511904537441874277,844,1511904537440171003,/gps,1,12,40.2669668333,-111.635805,1490.1,1.49549,3.16916885577,0.36
1511904537640976152,845,1511904537638858079,/gps,1,12,40.2669645,-111.6358055,1490.1,1.09988222222,3.20302824326,0.36
1511904537840231725,846,1511904537839067935,/gps,1,12,40.2669625,-111.635805833,1490.1,1.21460333333,3.20250464448,0.36
1511904538040976100,847,1511904538039069890,/gps,1,12,40.26696,-111.635806333,1490.1,1.39260111111,3.23392057102,0.36
1511904538239820683,848,1511904538238147020,/gps,1,12,40.2669578333,-111.635807,1490.2,1.14926888889,3.27633207184,0.36
1511904538441180735,849,1511904538439819097,/gps,1,12,40.2669556667,-111.635807833,1490.2,1.29794333333,3.29500709484,0.36
1511904538640938287,850,1511904538639215946,/gps,1,12,40.2669531667,-111.6358085,1490.2,1.48931666667,3.32834288355,0.36
1511904538840363600,851,1511904538838875055,/gps,1,12,40.2669505,-111.635809,1490.2,1.53355888889,3.28645498151,0.36
1511904539039761412,852,1511904539038618087,/gps,1,12,40.2669473333,-111.635809167,1490.2,1.81393111111,3.21105675782,0.36
1511904539237784329,853,1511904539236690998,/gps,1,12,40.266944,-111.635809167,1490.2,1.81959,3.17318311305,0.36
1511904539440373599,854,1511904539439259052,/gps,1,12,40.2669406667,-111.635809667,1490.3,1.79746888889,3.1901128068,0.36
1511904539640888443,855,1511904539639656066,/gps,1,12,40.266937,-111.63581,1490.3,2.20902444444,3.20041024938,0.36
1511904539839607870,856,1511904539838516950,/gps,1,12,40.2669331667,-111.635810167,1490.4,2.07115333333,3.18156069346,0.36
1511904540042992401,857,1511904540041033029,/gps,1,12,40.2669296667,-111.635810667,1490.5,2.07269666666,3.20739156639,0.36
1511904540240758859,858,1511904540239437103,/gps,1,12,40.2669246667,-111.635810833,1490.6,3.74875666666,3.17021605332,0.36
1511904540440643286,859,1511904540439289093,/gps,1,12,40.2669183333,-111.635811333,1490.7,3.42774333333,3.17649923863,0.36
1511904540638858182,860,1511904540635580062,/gps,1,12,40.266914,-111.635812,1490.7,1.57985888889,3.20878782979,0.3844
1511904540842078390,861,1511904540838839054,/gps,1,12,40.2669115,-111.635813,1490.7,1.41215,3.28104446082,0.3844
1511904541041116880,862,1511904541039778947,/gps,1,12,40.2669091667,-111.635813833,1490.7,1.25112888889,3.26184583905,0.3844
1511904541239178026,863,1511904541237900018,/gps,1,12,40.2669066667,-111.635814333,1490.7,1.52172666667,3.18208429224,0.3844
1511904541439305213,864,1511904541438034057,/gps,1,12,40.266904,-111.635814833,1490.7,1.52121222222,3.30670080083,0.3844
1511904541641285942,865,1511904541637912034,/gps,1,12,40.2669013333,-111.635815833,1490.6,1.50989444444,3.32781928478,0.3844
1511904541840983963,866,1511904541837879896,/gps,1,12,40.2668988333,-111.635816333,1490.7,1.48468666667,3.2857568498,0.3844
1511904542037655317,867,1511904542034185886,/gps,1,12,40.2668958333,-111.635816667,1490.7,1.67760333333,3.21978340408,0.3844
1511904542239205421,868,1511904542237931966,/gps,1,12,40.2668928333,-111.635816833,1490.7,1.55876666667,3.15450809005,0.3844
1511904542440200421,869,1511904542438496112,/gps,1,12,40.26689,-111.635816833,1490.8,1.52892888889,3.11715804406,0.3844
1511904542639264015,870,1511904542638060092,/gps,1,12,40.2668871667,-111.635816833,1490.8,1.61741333333,3.15363542543,0.3844
1511904542840650525,871,1511904542839294910,/gps,1,12,40.2668841667,-111.635817167,1490.8,1.72338888889,3.18243335809,0.4096
1511904543040260942,872,1511904543038587093,/gps,1,12,40.2668813333,-111.635817167,1490.8,1.50732222222,3.15852234733,0.4096
1511904543240083910,873,1511904543238746881,/gps,1,12,40.2668788333,-111.635817167,1490.7,1.50475,3.11104939168,0.4096
1511904543437602921,874,1511904543436094045,/gps,1,12,40.2668765,-111.635817167,1490.8,1.24341222222,3.15695155101,0.4096
1511904543640578442,875,1511904543639229059,/gps,1,12,40.2668743333,-111.635817167,1490.7,1.26656222222,3.13705479753,0.4096
1511904543839593233,876,1511904543838104009,/gps,1,12,40.2668721667,-111.635817333,1490.7,1.39105777778,3.17929176543,0.49
1511904544039949796,877,1511904544038369894,/gps,1,12,40.2668693333,-111.635817333,1490.7,1.86177444444,3.13112067808,0.4624
1511904544240886150,878,1511904544238630056,/gps,1,12,40.2668656667,-111.635817,1490.7,2.40657111111,3.09883208692,0.4624
1511904544440235108,879,1511904544438921928,/gps,1,12,40.2668621667,-111.635816833,1490.8,1.82422,3.07108135181,0.4624
1511904544639550472,880,1511904544638343095,/gps,1,12,40.2668588333,-111.635816667,1490.8,2.08247111111,3.13094614515,0.4624
1511904544835329899,881,1511904544834209918,/gps,1,12,40.266855,-111.635817,1491.0,2.37827666666,3.16620179604,0.4624
1511904545041706931,882,1511904545039226055,/gps,1,12,40.2668516667,-111.635817333,1491.0,1.70692666667,3.21280208707,0.4624
1511904545241288753,883,1511904545238733053,/gps,1,12,40.2668488333,-111.635817667,1491.0,1.55516555555,3.26167130613,0.4624
1511904545445529587,884,1511904545439973115,/gps,1,12,40.2668465,-111.635818333,1491.0,1.40803444444,3.31734730927,0.4624
1511904545642124587,885,1511904545639564990,/gps,1,12,40.2668443333,-111.635819333,1491.1,1.28353888889,3.3501594992,0.4624
1511904545842361826,886,1511904545839658975,/gps,1,12,40.2668421667,-111.635820167,1491.1,1.43221333333,3.41805280711,0.4624
1511904546046015732,887,1511904546039812088,/gps,1,12,40.26684,-111.635821333,1491.1,1.37459555555,3.42922291432,0.4624
1511904546240263493,888,1511904546236963987,/gps,1,12,40.2668378333,-111.635822167,1491.1,1.28868333333,3.38977847322,0.4624
1511904546442641409,889,1511904546439680099,/gps,1,12,40.2668355,-111.635822333,1491.1,1.54950666667,3.2192598053,0.4624
1511904546642170732,890,1511904546638818979,/gps,1,12,40.2668333333,-111.6358225,1491.1,1.13177777778,3.23025537959,0.4624
1511904546842060524,891,1511904546838936090,/gps,1,12,40.2668316667,-111.635823167,1491.1,1.23826777778,3.27301594626,0.4624
1511904547040967971,892,1511904547039172887,/gps,1,12,40.2668295,-111.635823667,1491.1,1.39723111111,3.23287337347,0.4624
1511904547242964169,893,1511904547240696907,/gps,1,12,40.2668275,-111.635823833,1491.1,1.22489222222,3.16916885577,0.4624
1511904547442646148,894,1511904547439498901,/gps,1,12,40.2668253333,-111.635824,1491.1,1.33704111111,3.11663444529,0.4624
1511904547637955575,895,1511904547635507106,/gps,1,12,40.2668231667,-111.635824,1491.1,1.15132666667,3.10860593073,0.3844
1511904547841891773,896,1511904547838735103,/gps,1,12,40.2668211667,-111.635824167,1491.1,1.21151666667,3.18365508856,0.4624
1511904548040561721,897,1511904548037843942,/gps,1,12,40.2668191667,-111.635824667,1491.1,1.36173444444,3.21210395537,0.4624
1511904548239720211,898,1511904548237229108,/gps,1,12,40.266817,-111.635825167,1491.1,1.04072111111,3.27179421579,0.4624
1511904548441957242,899,1511904548439001083,/gps,1,12,40.266815,-111.6358255,1491.1,1.29948666667,3.21699087728,0.4624
1511904548641845835,900,1511904548638832092,/gps,1,12,40.2668131667,-111.635825667,1491.1,1.06541444444,3.20808969809,0.4624
1511904548841946460,901,1511904548838624000,/gps,1,12,40.2668111667,-111.635825833,1491.1,1.20534333333,3.22571752354,0.4624
1511904549035359064,902,1511904549034504890,/gps,1,12,40.2668086667,-111.635826,1491.1,1.63953444444,3.26777995851,0.4624
1511904549239890939,903,1511904549238425970,/gps,1,12,40.2668063333,-111.635826167,1491.1,1.25112888889,3.257307983,0.4624
1511904549442022762,904,1511904549440249919,/gps,1,12,40.2668045,-111.6358265,1491.1,1.04998111111,3.29675242409,0.4624
1511904549638772345,905,1511904549637542009,/gps,1,12,40.2668025,-111.635826667,1491.1,1.14412444444,3.26341663538,0.4624
1511904549839089637,906,1511904549838078975,/gps,1,12,40.2668006667,-111.6358265,1491.1,1.01654222222,3.20110838108,0.4624
1511904550042114272,907,1511904550038809061,/gps,1,12,40.2667988333,-111.635826333,1491.1,1.02528777778,3.16079127536,0.4624
1511904550241603595,908,1511904550238285064,/gps,1,12,40.2667968333,-111.6358265,1491.1,1.19299666667,3.22152873333,0.4624
1511904550442164272,909,1511904550438976049,/gps,1,12,40.2667951667,-111.635827,1491.2,1.08290555555,3.27598300599,0.4624
1511904550642347970,910,1511904550639544963,/gps,1,12,40.2667933333,-111.635827333,1491.2,1.14721111111,3.28820031076,0.4624
1511904550845094116,911,1511904550839190959,/gps,1,12,40.2667911667,-111.635827833,1491.3,1.27222111111,3.26533649756,0.3844
1511904551039950991,912,1511904551038455963,/gps,1,12,40.2667893333,-111.635828,1491.4,1.02117222222,3.2635911683,0.3844
1511904551239642449,913,1511904551238253116,/gps,1,12,40.2667875,-111.635828333,1491.4,1.15904333333,3.35539548696,0.4489
1511904551438960314,914,1511904551437721014,/gps,1,12,40.2667855,-111.635829167,1491.4,1.25164333333,3.41560934615,0.4489
1511904551639176668,915,1511904551637943029,/gps,1,12,40.2667836667,-111.635829833,1491.4,1.07055888889,3.41019882547,0.4489
1511904551839668803,916,1511904551838067054,/gps,1,12,40.2667818333,-111.635830333,1491.5,1.32932444444,3.29273816681,0.4489
1511904552040385990,917,1511904552038296937,/gps,1,12,40.26678,-111.635830667,1491.6,0.970242222221,3.327295686,0.4489
1511904552239944219,918,1511904552237859010,/gps,1,12,40.2667785,-111.635831333,1491.6,0.980016666666,3.38000462941,0.4489
1511904552439261146,919,1511904552438023090,/gps,1,12,40.2667766667,-111.635832333,1491.6,1.31080444444,3.39187286833,0.4489
1511904552639211876,920,1511904552637999057,/gps,1,12,40.266775,-111.635833,1491.7,0.869925555555,3.34928683458,0.4489
1511904552838652553,921,1511904552837467908,/gps,1,12,40.2667735,-111.635833333,1491.8,0.950693333333,3.22659018816,0.5184
1511904553037826042,922,1511904553036051034,/gps,1,12,40.2667718333,-111.635833333,1491.8,0.894618888888,3.1049407393,0.5184
1511904553239539480,923,1511904553238430976,/gps,1,12,40.2667701667,-111.635833167,1491.8,1.13126333333,3.12117230134,0.5184
1511904553440063594,924,1511904553438626050,/gps,1,12,40.266768,-111.635832833,1491.7,1.45690666667,3.07701547127,0.5184
1511904553639379479,925,1511904553637944936,/gps,1,12,40.2667653333,-111.635832833,1491.6,1.59426333333,3.13443680366,0.5184
1511904553839306823,926,1511904553838052988,/gps,1,12,40.2667626667,-111.635832833,1491.6,1.42912666667,3.09726129059,0.5184
1511904554039040000,927,1511904554037816047,/gps,1,12,40.2667601667,-111.635832333,1491.6,1.41472222222,3.0848694529,0.5184
1511904554239462708,928,1511904554238233089,/gps,1,12,40.266758,-111.635832333,1491.6,1.09782444444,3.13496040243,0.5184
1511904554435128489,929,1511904554433931112,/gps,1,12,40.266756,-111.635832667,1491.6,1.24907111111,3.20041024938,0.5184
1511904554638706406,930,1511904554637418985,/gps,1,12,40.2667538333,-111.635833167,1491.6,0.990305555555,3.22205233211,0.4624
1511904554839808646,931,1511904554838447093,/gps,1,12,40.2667515,-111.6358335,1491.6,1.29177,3.21105675782,0.4624
1511904555041127656,932,1511904555038705110,/gps,1,12,40.2667491667,-111.635834,1491.6,1.03814888889,3.26673276096,0.4624
1511904555240722291,933,1511904555238034009,/gps,1,12,40.2667473333,-111.6358345,1491.5,1.06335666667,3.38332075499,0.5184
1511904555441538385,934,1511904555439016103,/gps,1,12,40.266745,-111.635835667,1491.6,1.38231222222,3.46884188834,0.5184
1511904555641656874,935,1511904555638859033,/gps,1,12,40.2667428333,-111.635836667,1491.6,1.14978333333,3.50566833556,0.5184
1511904555837574166,936,1511904555835467100,/gps,1,12,40.2667406667,-111.635837333,1491.7,1.16367333333,3.37860836601,0.4624
1511904556040713541,937,1511904556039144039,/gps,1,12,40.2667385,-111.635837833,1491.7,1.24804222222,3.40007591581,0.4624
1511904556239864635,938,1511904556238529920,/gps,1,12,40.2667365,-111.635838167,1491.8,0.947092222221,3.390302072,0.4624
1511904556440200937,939,1511904556438905954,/gps,1,12,40.2667348333,-111.635838833,1491.8,1.09525222222,3.36708919295,0.4624
1511904556640172447,940,1511904556638808012,/gps,1,12,40.2667326667,-111.6358395,1491.8,1.22334888889,3.39763245486,0.4624
1511904556840377864,941,1511904556838907957,/gps,1,12,40.2667308333,-111.63584,1491.8,0.949664444444,3.38768407812,0.4624
1511904557038853384,942,1511904557037676095,/gps,1,12,40.266729,-111.635840333,1491.8,0.991334444444,3.31874357267,0.4624
1511904557237018488,943,1511904557235239982,/gps,1,12,40.2667273333,-111.6358405,1491.8,0.927543333333,3.3051300045,0.4624
1511904557440087082,944,1511904557438808917,/gps,1,12,40.2667258333,-111.635840667,1491.8,0.89256111111,3.29221456804,0.4624
1511904557639811197,945,1511904557638567924,/gps,1,12,40.266724,-111.635840667,1491.7,1.29125555555,3.28820031076,0.4624
1511904557840607551,946,1511904557839023113,/gps,1,12,40.266722,-111.635840667,1491.7,1.01602777778,3.2559117196,0.4624
1511904558040197238,947,1511904558039299964,/gps,1,12,40.2667201667,-111.635840667,1491.6,1.08702111111,3.20774063224,0.4624
1511904558238830832,948,1511904558237293958,/gps,1,12,40.2667183333,-111.6358405,1491.6,1.09833888889,3.1548571559,0.4624
1511904558439784373,949,1511904558438256978,/gps,1,12,40.2667165,-111.635840333,1491.6,1.07570333333,3.11122392461,0.4624
1511904558636276040,950,1511904558634787082,/gps,1,12,40.2667145,-111.63584,1491.6,1.19711222222,3.10092648202,0.4624
1511904558842328592,951,1511904558839240074,/gps,1,12,40.2667125,-111.635839833,1491.6,1.18785222222,3.03547663507,0.4624
1511904559039569373,952,1511904559037996053,/gps,1,12,40.2667105,-111.635839,1491.5,1.17756333333,2.96199827356,0.4624
1511904559239969842,953,1511904559238982915,/gps,1,12,40.2667083333,-111.635838167,1491.4,1.36379222222,2.94559217859,0.4624
1511904559440810415,954,1511904559439403057,/gps,1,12,40.2667058333,-111.635837667,1491.3,1.27119222222,3.03128784486,0.4624
1511904559638999842,955,1511904559637561082,/gps,1,12,40.266704,-111.635837833,1491.3,0.656431111111,3.07160495058,0.4624
1511904559839487602,956,1511904559838135004,/gps,1,12,40.2667025,-111.635837667,1491.4,1.0186,3.09691222474,0.4624
1511904560037447498,957,1511904560034847021,/gps,1,12,40.266701,-111.6358375,1491.4,0.789672222222,3.09743582351,0.4624
1511904560241439998,958,1511904560239012002,/gps,1,12,40.2666995,-111.635837167,1491.4,0.838029999999,3.04367968255,0.4624
1511904560441901716,959,1511904560439075946,/gps,1,12,40.266698,-111.635836833,1491.4,0.796874444444,3.02779718636,0.4624
1511904560645101716,960,1511904560638545989,/gps,1,12,40.2666965,-111.6358365,1491.3,0.950693333333,3.05694418487,0.4624
1511904560838568852,961,1511904560836904048,/gps,1,12,40.2666948333,-111.635836167,1491.3,1.00419555555,3.00214084636,0.4624
1511904561042258435,962,1511904561038176059,/gps,1,12,40.2666931667,-111.6358355,1491.3,1.03351888889,2.84837733925,0.4624
1511904561238879997,963,1511904561237071990,/gps,1,12,40.2666915,-111.635834,1491.3,1.19865555555,2.57540784424,0.4624
1511904561434226299,964,1511904561433059930,/gps,1,12,40.26669,-111.635832167,1491.3,1.29742888889,2.48447619021,0.4624
1511904561639170205,965,1511904561637553930,/gps,1,12,40.2666885,-111.6358295,1491.3,1.53921777778,2.2308798499,0.4624
1511904561838707705,966,1511904561837774991,/gps,1,12,40.2666875,-111.635826167,1491.2,1.47182555555,2.14762764458,0.4624
1511904562038170466,967,1511904562036849021,/gps,1,12,40.2666866667,-111.635822833,1491.2,1.73573555555,2.00643050809,0.4624
1511904562238119841,968,1511904562236691951,/gps,1,12,40.2666863333,-111.635818833,1491.2,1.69766666667,1.82735972684,0.4624
1511904562439569007,969,1511904562437897920,/gps,1,12,40.2666868333,-111.635815167,1491.2,1.52738555555,1.56381500979,0.4624
1511904562639685934,970,1511904562638154029,/gps,1,12,40.266688,-111.635811333,1491.3,2.03051222222,1.37182879207,0.4624
1511904562834691611,971,1511904562832935094,/gps,1,12,40.2666895,-111.635808,1491.5,1.44764666667,1.19031454986,0.4624
1511904563039302861,972,1511904563038105964,/gps,1,12,40.2666915,-111.6358055,1491.5,1.55465111111,0.996408469964,0.4624
1511904563238859892,973,1511904563237752914,/gps,1,12,40.2666935,-111.635802667,1491.5,1.65445333333,0.919788515801,0.4624
1511904563438854580,974,1511904563437742948,/gps,1,12,40.2666958333,-111.635800333,1491.5,1.36482111111,0.82711153252,0.4624
1511904563639528434,975,1511904563638297080,/gps,1,12,40.2666983333,-111.635798333,1491.5,1.50012,0.68678706066,0.4624
1511904563840083330,976,1511904563838207960,/gps,1,12,40.266701,-111.635796667,1491.5,1.11274333333,0.692197581341,0.4624
1511904564039608277,977,1511904564038345098,/gps,1,12,40.266703,-111.635795333,1491.4,0.903878888888,0.65222954147,0.4624
1511904564238216454,978,1511904564236520051,/gps,1,12,40.266705,-111.635794167,1491.4,1.10399777778,0.609294441871,0.4624
1511904564440911090,979,1511904564439358949,/gps,1,12,40.2667073333,-111.635792833,1491.4,1.11634444444,0.578925712887,0.4624
1511904564639583798,980,1511904564638278007,/gps,1,12,40.2667093333,-111.6357915,1491.5,1.16418777778,0.592713813977,0.4624
1511904564842984996,981,1511904564839931964,/gps,1,12,40.2667115,-111.6357905,1491.5,1.18373666667,0.499513231921,0.4624
1511904565045077913,982,1511904565039513111,/gps,1,12,40.2667136667,-111.6357895,1491.5,1.18013555555,0.473158760216,0.4624
1511904565238977340,983,1511904565237981081,/gps,1,12,40.2667156667,-111.635788333,1491.5,1.17910666667,0.540179403492,0.4624
1511904565439281819,984,1511904565437908887,/gps,1,12,40.2667176667,-111.635787,1491.5,1.22180555555,0.628143997793,0.4624
1511904565639488069,985,1511904565638340950,/gps,1,12,40.2667196667,-111.6357855,1491.5,1.16933222222,0.576656784859,0.4624
1511904565839702079,986,1511904565838429927,/gps,1,12,40.2667216667,-111.635784333,1491.4,1.23055111111,0.573166126355,0.4624
1511904566041165829,987,1511904566040230989,/gps,1,12,40.266724,-111.635783667,1491.5,1.08084777778,0.531801823083,0.4624
1511904566241788329,988,1511904566239177942,/gps,1,12,40.266726,-111.635782667,1491.6,1.12920555555,0.557807228937,0.4225
1511904566441693693,989,1511904566439395904,/gps,1,12,40.2667281667,-111.6357815,1491.6,1.30051555555,0.580671042139,0.4225
1511904566639569891,990,1511904566638376951,/gps,1,12,40.2667305,-111.635780167,1491.6,1.34064222222,0.585208898194,0.4225
1511904566838185724,991,1511904566836891889,/gps,1,12,40.2667328333,-111.635778833,1491.6,1.26810555555,0.519235452468,0.4225
1511904567039495933,992,1511904567038237094,/gps,1,12,40.2667351667,-111.6357775,1491.6,1.30926111111,0.534594349886,0.4225
1511904567240653485,993,1511904567239453077,/gps,1,12,40.266737,-111.635775667,1491.6,1.37150888889,0.540353936417,0.4225
1511904567443918849,994,1511904567440668106,/gps,1,12,40.266739,-111.635774,1491.6,1.36019111111,0.525518637775,0.4225
1511904567640599787,995,1511904567637866020,/gps,1,12,40.2667408333,-111.635772,1491.6,1.33858444444,0.575609587308,0.4225
1511904567839902130,996,1511904567838479995,/gps,1,12,40.2667428333,-111.6357705,1491.6,1.30000111111,0.541924732744,0.4225
1511904568040472286,997,1511904568038743972,/gps,1,12,40.2667451667,-111.635769167,1491.6,1.35144555555,0.480489143074,0.4225
1511904568235623120,998,1511904568233933925,/gps,1,12,40.2667475,-111.635768333,1491.6,1.32366555555,0.46792277246,0.4225
1511904568439289161,999,1511904568437611103,/gps,1,12,40.2667498333,-111.635767333,1491.7,1.21820444444,0.470715299263,0.4225
1511904568639261453,1000,1511904568637716054,/gps,1,12,40.266752,-111.635765833,1491.7,1.60866777778,0.5471607205,0.4225
1511904568840451765,1001,1511904568838922023,/gps,1,12,40.2667543333,-111.635764,1491.7,1.38076888889,0.59550634078,0.4225
1511904569040421973,1002,1511904569039005041,/gps,1,12,40.2667563333,-111.6357625,1491.8,1.21203111111,0.583114503091,0.4225
1511904569240391453,1003,1511904569239175081,/gps,1,12,40.2667583333,-111.635761,1491.8,1.35659,0.572118928804,0.4225
1511904569442217859,1004,1511904569440835952,/gps,1,12,40.2667605,-111.635759167,1491.8,1.34424333333,0.549604181453,0.4225
1511904569636747650,1005,1511904569635466098,/gps,1,12,40.2667626667,-111.635757333,1491.7,1.43890111111,0.583463568942,0.4225
1511904569842810046,1006,1511904569841274023,/gps,1,12,40.2667648333,-111.6357555,1491.7,1.42552555555,0.578751179961,0.4225
1511904570045932963,1007,1511904570041011095,/gps,1,12,40.2667668333,-111.6357535,1491.7,1.28816888889,0.604058454115,0.4225
1511904570242419265,1008,1511904570240067958,/gps,1,12,40.2667688333,-111.6357515,1491.6,1.36739333333,0.554316570433,0.4225
1511904570446827338,1009,1511904570442050933,/gps,1,12,40.2667705,-111.6357495,1491.6,1.32520888889,0.562519617918,0.4225
1511904570646133483,1010,1511904570641343116,/gps,1,12,40.2667721667,-111.635747167,1491.5,1.27222111111,0.567406539823,0.4225
1511904570846243796,1011,1511904570841464996,/gps,1,12,40.266774,-111.635744833,1491.4,1.62873111111,0.548382450977,0.4225
1511904571042805671,1012,1511904571037580966,/gps,1,12,40.2667766667,-111.635742667,1491.4,1.65342444444,0.558156294788,0.4225
1511904571245030566,1013,1511904571240602970,/gps,1,12,40.2667795,-111.635740667,1491.3,1.68943555555,0.488866723484,0.4225
1511904571456929525,1014,1511904571454684019,/gps,1,12,40.266782,-111.635738667,1491.3,1.58088777778,0.47298422729,0.4225
1511904571642264733,1015,1511904571641119003,/gps,1,12,40.2667845,-111.6357365,1491.2,1.49446111111,0.506669081854,0.4225
1511904571843009264,1016,1511904571841664075,/gps,1,12,40.2667868333,-111.635734,1491.2,1.58603222222,0.562519617918,0.4225
1511904572042923535,1017,1511904572041660070,/gps,1,12,40.2667895,-111.6357315,1491.2,1.81959,0.589048622548,0.4225
1511904572243150097,1018,1511904572242027997,/gps,1,12,40.2667921667,-111.635728833,1491.1,1.80621444444,0.567755605674,0.4225
1511904572439348795,1019,1511904572437722921,/gps,1,12,40.2667948333,-111.635726167,1491.0,1.72441777778,0.51190506961,0.4225
1511904572643441243,1020,1511904572642232894,/gps,1,12,40.2667973333,-111.635723667,1490.9,1.62770222222,0.517839189067,0.4225
1511904572842976087,1021,1511904572841598033,/gps,1,12,40.2667998333,-111.635721667,1490.9,1.66834333333,0.550651379004,0.4225
1511904573041553587,1022,1511904573040287971,/gps,1,12,40.2668025,-111.63572,1491.0,1.77123222222,0.556585498461,0.4225
1511904573241839524,1023,1511904573240370035,/gps,1,12,40.2668053333,-111.635718167,1491.1,1.58294555555,0.537735942539,0.4225
1511904573444227232,1024,1511904573441447019,/gps,1,12,40.2668078333,-111.635716167,1491.1,1.66474222222,0.530580092606,0.4225
1511904573643064368,1025,1511904573640228986,/gps,1,12,40.2668103333,-111.6357145,1491.1,1.39877444444,0.531801823083,0.4225
1511904573839379315,1026,1511904573836944103,/gps,1,12,40.2668125,-111.6357125,1491.1,1.67503111111,0.593761011528,0.4225
1511904574041810722,1027,1511904574040355920,/gps,1,12,40.2668148333,-111.635709833,1491.1,1.71258555555,0.603011256564,0.4225
1511904574242952596,1028,1511904574241190910,/gps,1,12,40.2668173333,-111.6357075,1491.1,1.64570777778,0.590619418875,0.4225
1511904574442721503,1029,1511904574441092014,/gps,1,12,40.2668195,-111.635704833,1491.0,1.69303666667,0.537212343764,0.4225
1511904574642497961,1030,1511904574640970945,/gps,1,12,40.2668218333,-111.635702167,1490.9,1.64210666667,0.519060919543,0.4225
1511904574842841711,1031,1511904574840843915,/gps,1,12,40.2668245,-111.6356995,1490.9,1.82473444444,0.522377045122,0.4225
1511904575044670357,1032,1511904575041563034,/gps,1,12,40.2668271667,-111.635697333,1490.9,1.74551,0.567406539823,0.4225
1511904575237863534,1033,1511904575236699104,/gps,1,12,40.26683,-111.635695667,1491.0,1.73625,0.452214809192,0.4225
1511904575445944992,1034,1511904575442698955,/gps,1,12,40.2668326667,-111.635694,1491.0,1.71052777778,0.467050107834,0.4225
1511904575645515461,1035,1511904575642256975,/gps,1,12,40.2668355,-111.635692167,1491.0,1.63233222222,0.461988653003,0.4225
1511904575845389731,1036,1511904575842998027,/gps,1,12,40.2668381667,-111.635690333,1491.0,1.7594,0.453785605519,0.4225
1511904576044827752,1037,1511904576041892051,/gps,1,12,40.2668411667,-111.635688333,1491.1,1.95025888889,0.479791011373,0.4225
1511904576245506294,1038,1511904576242163896,/gps,1,12,40.2668441667,-111.6356865,1491.1,1.87309222222,0.429874594766,0.4225
1511904576445723273,1039,1511904576443084955,/gps,1,12,40.2668471667,-111.635685,1491.2,1.77226111111,0.441044701979,0.4225
1511904576640844418,1040,1511904576638303995,/gps,1,12,40.2668498333,-111.6356835,1491.3,1.59786444444,0.47298422729,0.4225
1511904576844048168,1041,1511904576842106103,/gps,1,12,40.2668525,-111.635681667,1491.3,1.87206333333,0.544542726622,0.4225
1511904577044646345,1042,1511904577042098999,/gps,1,12,40.2668548333,-111.635679667,1491.3,1.40597666667,0.571420797103,0.4225
1511904577245239314,1043,1511904577242793083,/gps,1,12,40.2668571667,-111.635677833,1491.4,1.78255,0.526914901177,0.4225
1511904577443519418,1044,1511904577442069053,/gps,1,12,40.26686,-111.635676167,1491.4,1.69560888889,0.506843614779,0.4225
1511904577646144418,1045,1511904577642699956,/gps,1,12,40.2668628333,-111.635674333,1491.5,1.69612333333,0.521853446346,0.4225
1511904577844022647,1046,1511904577841705083,/gps,1,12,40.2668655,-111.635672167,1491.5,1.92813777778,0.598822466359,0.4225
1511904578042187751,1047,1511904578039247035,/gps,1,12,40.2668683333,-111.635669667,1491.5,1.74036555555,0.598996999284,0.4225
1511904578244277855,1048,1511904578242501020,/gps,1,12,40.2668711667,-111.635667667,1491.6,1.75991444444,0.528136631653,0.4225
1511904578443677803,1049,1511904578442251920,/gps,1,12,40.2668741667,-111.635665667,1491.6,1.71207111111,0.541750199819,0.4225
1511904578642771136,1050,1511904578641128063,/gps,1,12,40.2668768333,-111.6356635,1491.6,1.61792777778,0.549778714378,0.4225
1511904578843182907,1051,1511904578841166973,/gps,1,12,40.2668795,-111.635661167,1491.6,1.86331777778,0.589223155473,0.4225
1511904579042219053,1052,1511904579040685892,/gps,1,12,40.2668825,-111.635658667,1491.6,1.82987888889,0.529881960905,0.4225
1511904579243469522,1053,1511904579242027997,/gps,1,12,40.2668855,-111.6356565,1491.6,1.77586222222,0.545589924173,0.4225
1511904579445532490,1054,1511904579443922996,/gps,1,12,40.2668881667,-111.6356545,1491.6,1.58243111111,0.557981761863,0.4225
1511904579643394574,1055,1511904579641493082,/gps,1,12,40.2668908333,-111.6356525,1491.7,1.54693444444,0.551698576555,0.4225
1511904579843665511,1056,1511904579841751098,/gps,1,12,40.2668933333,-111.635650667,1491.6,1.60506666667,0.581892772615,0.4225
1511904580044020146,1057,1511904580041620016,/gps,1,12,40.266896,-111.6356485,1491.7,1.63696222222,0.595680873706,0.4225
1511904580244248219,1058,1511904580242042064,/gps,1,12,40.2668983333,-111.6356465,1491.7,1.42655444444,0.631285590446,0.4225
1511904580445280094,1059,1511904580443011999,/gps,1,12,40.2669008333,-111.6356445,1491.7,1.61844222222,0.561472420367,0.4225
1511904580644052021,1060,1511904580641136884,/gps,1,12,40.2669033333,-111.635642333,1491.6,1.63336111111,0.57299159343,0.4225
1511904580843020927,1061,1511904580841593980,/gps,1,12,40.266906,-111.635640333,1491.6,1.60352333333,0.546462588799,0.4225
1511904581042937438,1062,1511904581040930986,/gps,1,12,40.2669088333,-111.635638167,1491.6,1.81393111111,0.51661745859,0.4225
1511904581245682490,1063,1511904581243805885,/gps,1,12,40.2669118333,-111.635636,1491.6,1.95643222222,0.507716279405,0.4225
1511904581442147750,1064,1511904581440738916,/gps,1,12,40.2669148333,-111.635634,1491.5,1.71618666667,0.525693170701,0.4624
1511904581642165875,1065,1511904581640466928,/gps,1,12,40.2669176667,-111.6356315,1491.5,1.81753222222,0.588350490847,0.4624
1511904581842325250,1066,1511904581840445995,/gps,1,12,40.2669203333,-111.635628833,1491.5,1.76660222222,0.621162680785,0.4624
1511904582039819781,1067,1511904582038340091,/gps,1,12,40.2669228333,-111.635626667,1491.6,1.62358666667,0.563741348394,0.4624
1511904582244236916,1068,1511904582242551088,/gps,1,12,40.2669253333,-111.635624833,1491.6,1.64725111111,0.549778714378,0.4624
1511904582443097541,1069,1511904582441899061,/gps,1,12,40.266928,-111.635622833,1491.5,1.61689888889,0.532325421858,0.4624
1511904582643152229,1070,1511904582641681909,/gps,1,12,40.2669306667,-111.635620667,1491.5,1.83502333333,0.595331807855,0.4624
1511904582843226239,1071,1511904582841757059,/gps,1,12,40.2669331667,-111.635618167,1491.5,1.67863222222,0.626573201466,0.4624
1511904583044217593,1072,1511904583042634010,/gps,1,12,40.2669358333,-111.635615667,1491.6,1.77277555555,0.598647933434,0.4225
1511904583243236968,1073,1511904583241620063,/gps,1,12,40.2669385,-111.6356135,1491.6,1.61432666667,0.553094839957,0.4225
1511904583440868947,1074,1511904583438311100,/gps,1,12,40.2669411667,-111.6356115,1491.6,1.61329777778,0.497767902669,0.4225
1511904583644235874,1075,1511904583643002033,/gps,1,12,40.2669438333,-111.6356095,1491.6,1.66525666667,0.485550597905,0.36
1511904583844207072,1076,1511904583842171907,/gps,1,12,40.2669463333,-111.635607333,1491.5,1.55979555555,0.526216769476,0.36
1511904584044522801,1077,1511904584042716026,/gps,1,12,40.2669486667,-111.635605167,1491.5,1.49291777778,0.487295927157,0.36
1511904584244275561,1078,1511904584242362976,/gps,1,12,40.2669511667,-111.635603167,1491.5,1.62924555555,0.499338698996,0.36
1511904584444602853,1079,1511904584442811012,/gps,1,12,40.2669536667,-111.635601333,1491.5,1.50063444444,0.492880980763,0.36
1511904584643205353,1080,1511904584641498088,/gps,1,12,40.2669561667,-111.6355995,1491.5,1.47439777778,0.479965544298,0.36
1511904584841086499,1081,1511904584838504076,/gps,1,12,40.2669588333,-111.635597333,1491.4,1.54539111111,0.508588944031,0.36
1511904585045585509,1082,1511904585043416976,/gps,1,12,40.2669613333,-111.635595667,1491.4,1.46873888889,0.439299372727,0.36
1511904585245901290,1083,1511904585243526935,/gps,1,12,40.2669643333,-111.635594167,1491.4,1.75065444444,0.436157780073,0.36
1511904585445013894,1084,1511904585443553924,/gps,1,12,40.266967,-111.635592833,1491.4,1.52481333333,0.409279709593,0.36
1511904585644703425,1085,1511904585643316984,/gps,1,12,40.2669698333,-111.635591,1491.4,1.74036555555,0.489041256409,0.36
1511904585845061342,1086,1511904585843703985,/gps,1,12,40.2669725,-111.635589,1491.4,1.6668,0.493230046614,0.36
1511904586043672540,1087,1511904586042278051,/gps,1,12,40.2669753333,-111.635587333,1491.4,1.68326222222,0.460941455452,0.36
1511904586237337904,1088,1511904586236157894,/gps,1,12,40.2669783333,-111.635585333,1491.4,1.7131,0.496197106342,0.4225
1511904586442687800,1089,1511904586441374063,/gps,1,12,40.2669811667,-111.6355835,1491.5,1.59940777778,0.45954519205,0.4225
1511904586642730977,1090,1511904586641529083,/gps,1,12,40.2669838333,-111.635581833,1491.5,1.67914666667,0.464432113956,0.4225
1511904586843170456,1091,1511904586841873884,/gps,1,12,40.2669866667,-111.635579833,1491.5,1.72287444444,0.480314610149,0.4225
1511904587042407904,1092,1511904587041173934,/gps,1,12,40.2669896667,-111.635578,1491.4,1.87669333333,0.459894257901,0.4225
1511904587242613008,1093,1511904587240398883,/gps,1,12,40.2669926667,-111.635576,1491.4,1.65291,0.497418836818,0.4225
1511904587443920039,1094,1511904587441817998,/gps,1,12,40.2669951667,-111.635574333,1491.5,1.63644777778,0.495673507566,0.4225
1511904587638608216,1095,1511904587636888980,/gps,1,12,40.2669981667,-111.635572333,1491.4,1.93636888889,0.5035274892,0.4225
1511904587843048268,1096,1511904587840877056,/gps,1,12,40.2670011667,-111.63557,1491.5,1.83348,0.518362787842,0.4225
1511904588042089779,1097,1511904588040570020,/gps,1,12,40.2670041667,-111.635568,1491.5,1.81753222222,0.446978821436,0.4225
1511904588243871654,1098,1511904588240575075,/gps,1,12,40.267007,-111.635566333,1491.5,1.79283888889,0.475078622393,0.4225
1511904588442012591,1099,1511904588440726995,/gps,1,12,40.2670096667,-111.635564667,1491.5,1.47902777778,0.491484717362,0.4225
1511904588642572904,1100,1511904588641360044,/gps,1,12,40.2670121667,-111.635562833,1491.6,1.73007666667,0.549778714378,0.4225
1511904588842930508,1101,1511904588841118097,/gps,1,12,40.2670146667,-111.635560667,1491.6,1.75785666667,0.588874089623,0.4225
1511904589037998476,1102,1511904589036541938,/gps,1,12,40.2670173333,-111.635558333,1491.6,1.54487666667,0.589223155473,0.4225
1511904589242160195,1103,1511904589240500926,/gps,1,12,40.2670198333,-111.635556,1491.7,1.86486111111,0.604058454115,0.4225
1511904589442109257,1104,1511904589440579891,/gps,1,12,40.2670223333,-111.6355535,1491.7,1.41523666667,0.602836723639,0.4225
1511904589641154986,1105,1511904589639580965,/gps,1,12,40.2670246667,-111.635551333,1491.7,1.70795555555,0.676664150998,0.4225
1511904589840865976,1106,1511904589839674949,/gps,1,12,40.267027,-111.6355485,1491.8,1.69046444444,0.695339173995,0.4225
1511904590043589830,1107,1511904590040656089,/gps,1,12,40.2670295,-111.635545833,1491.8,1.63130333333,0.666366708411,0.4225
1511904590241742486,1108,1511904590240096092,/gps,1,12,40.2670323333,-111.6355435,1491.8,1.86537555555,0.656941930451,0.4225
1511904590437864622,1109,1511904590436288118,/gps,1,12,40.2670348333,-111.635541167,1491.9,1.56957,0.663923247459,0.4225
1511904590641971080,1110,1511904590640238046,/gps,1,12,40.2670373333,-111.635538833,1491.9,1.73264888889,0.668810169364,0.4225
1511904590841854778,1111,1511904590840527057,/gps,1,12,40.2670398333,-111.635536167,1491.9,1.79283888889,0.654847535348,0.4225
1511904591041166444,1112,1511904591039314985,/gps,1,12,40.2670425,-111.635534,1492.0,1.66577111111,0.599695130985,0.4225
1511904591243266913,1113,1511904591240247011,/gps,1,12,40.2670451667,-111.635531833,1492.0,1.70435444444,0.611388836974,0.4225
1511904591443121652,1114,1511904591441533088,/gps,1,12,40.2670476667,-111.635529667,1492.1,1.50680777778,0.599346065135,0.4225
1511904591642459725,1115,1511904591640800952,/gps,1,12,40.2670503333,-111.635527333,1492.0,1.87257777778,0.592713813977,0.4225
1511904591839623527,1116,1511904591838026046,/gps,1,12,40.2670531667,-111.635525,1492.0,1.72596111111,0.587652359146,0.4225
1511904592042959829,1117,1511904592041049957,/gps,1,12,40.267056,-111.635522667,1492.1,1.72544666667,0.563741348394,0.4225
1511904592243304881,1118,1511904592240293979,/gps,1,12,40.2670586667,-111.6355205,1492.1,1.71207111111,0.592888346902,0.4225
1511904592442938735,1119,1511904592441149950,/gps,1,12,40.2670613333,-111.635518333,1492.1,1.63130333333,0.583463568942,0.4225
1511904592641167329,1120,1511904592639880895,/gps,1,12,40.267064,-111.635515833,1492.0,1.73213444444,0.589572221324,0.4225
1511904592841905714,1121,1511904592840626001,/gps,1,12,40.2670668333,-111.635513167,1492.0,1.75014,0.610341639422,0.4225
1511904593041889412,1122,1511904593040631055,/gps,1,12,40.2670696667,-111.635510667,1492.0,1.71824444444,0.596728071257,0.4225
1511904593241673370,1123,1511904593240530014,/gps,1,12,40.2670723333,-111.635508333,1492.0,1.64210666667,0.591492083501,0.4225
1511904593443142120,1124,1511904593441662073,/gps,1,12,40.2670751667,-111.635506167,1492.0,1.81496,0.575958653158,0.4225
1511904593640695558,1125,1511904593639317035,/gps,1,12,40.2670781667,-111.635503667,1492.0,1.86949111111,0.598996999284,0.4225
1511904593842895558,1126,1511904593839900970,/gps,1,12,40.2670811667,-111.635501167,1492.1,1.86949111111,0.607200046769,0.4225
1511904594039701287,1127,1511904594038435935,/gps,1,12,40.2670846667,-111.635498833,1492.1,2.33609222222,0.506494548929,0.4225
1511904594239653110,1128,1511904594238372087,/gps,1,12,40.2670886667,-111.635496667,1492.1,2.24400666666,0.478394747972,0.4225
1511904594439882380,1129,1511904594438565015,/gps,1,12,40.2670918333,-111.635494667,1492.1,1.56133888889,0.533896218185,0.4225
1511904594640191860,1130,1511904594638854980,/gps,1,12,40.2670946667,-111.635492167,1492.1,2.04183,0.5686282703,0.4225
1511904594840544412,1131,1511904594839222908,/gps,1,12,40.2670975,-111.63549,1492.1,1.63233222222,0.571769862953,0.4225
1511904595041734151,1132,1511904595039311885,/gps,1,12,40.2671,-111.6354875,1492.1,1.80827222222,0.664097780384,0.4225
