%time,field.header.seq,field.header.stamp,field.header.frame_id,field.fix,field.NumSat,field.latitude,field.longitude,field.altitude,field.speed,field.ground_course,field.covariance
1511903031201128498,237,1511903031199357986,/gps,1,12,40.26805,-111.634337333,1496.8,1.18836666667,0.642281164734,0.5329
1511903031405195320,238,1511903031403809070,/gps,1,12,40.2680526667,-111.634336333,1496.7,1.48931666667,0.465653844432,0.5329
1511903031604039279,239,1511903031602519989,/gps,1,12,40.2680546667,-111.634335167,1496.7,0.935774444444,0.465653844432,0.5329
1511903031805562560,240,1511903031803909063,/gps,1,12,40.2680568333,-111.634334333,1496.9,1.43787222222,0.461639587153,0.5329
1511903032005616466,241,1511903032004084110,/gps,1,12,40.268058,-111.634332833,1496.9,0.743372222222,0.461639587153,0.4761
1511903032215082456,242,1511903032213053941,/gps,1,12,40.2680593333,-111.6343305,1496.8,1.57831555555,0.612086968674,0.4761
1511903032405296935,243,1511903032403451919,/gps,1,12,40.26806,-111.634328333,1496.9,0.987733333332,0.612086968674,0.5329
1511903032601959747,244,1511903032600435972,/gps,1,12,40.2680596667,-111.634326,1497.0,1.05821222222,0.612086968674,0.5329
1511903032806098757,245,1511903032804450035,/gps,1,12,40.2680596667,-111.6343235,1497.2,1.09268,0.612086968674,0.5329
1511903033008029122,246,1511903033005048036,/gps,1,12,40.2680596667,-111.634321333,1497.2,0.746973333333,0.612086968674,0.5329
1511903033208442716,247,1511903033205008983,/gps,1,12,40.2680601667,-111.634320333,1497.2,0.551998888888,0.612086968674,0.5329
1511903033405145632,248,1511903033403594970,/gps,1,12,40.2680605,-111.634319833,1497.3,0.397665555555,0.612086968674,0.5329
1511903033604989695,249,1511903033603075981,/gps,1,12,40.268061,-111.634319167,1497.3,0.53245,0.612086968674,0.5329
1511903033806988445,250,1511903033804388999,/gps,1,12,40.2680613333,-111.634318667,1497.4,0.321013333333,0.612086968674,0.5329
1511903034003615111,251,1511903034001028060,/gps,1,12,40.2680615,-111.634318333,1497.4,0.268025555555,0.612086968674,0.5329
1511903034205057507,252,1511903034203322887,/gps,1,12,40.2680618333,-111.634317667,1497.5,0.276256666666,0.612086968674,0.5329
1511903034405431257,253,1511903034403192043,/gps,1,12,40.2680618333,-111.6343165,1497.4,0.295805555555,0.612086968674,0.5329
1511903034604322611,254,1511903034603013992,/gps,1,12,40.2680618333,-111.634315833,1497.4,0.176454444444,0.612086968674,0.5329
1511903034804435475,255,1511903034803054094,/gps,1,12,40.2680616667,-111.634315167,1497.4,0.1389,0.612086968674,0.5329
1511903035004538965,256,1511903035003165960,/gps,1,12,40.2680613333,-111.6343145,1497.3,0.249505555555,0.612086968674,0.5329
1511903035204934798,257,1511903035203212976,/gps,1,12,40.2680613333,-111.634314,1497.4,0.180055555555,0.612086968674,0.5329
1511903035401919121,258,1511903035400218963,/gps,1,12,40.2680611667,-111.634313167,1497.3,0.1852,0.612086968674,0.5329
1511903035604368183,259,1511903035603136062,/gps,1,12,40.2680608333,-111.634312667,1497.4,0.149188888889,0.612086968674,0.5329
1511903035804300892,260,1511903035803098917,/gps,1,12,40.2680608333,-111.634312667,1497.4,0.100831111111,0.612086968674,0.5476
1511903036005381881,261,1511903036003772974,/gps,1,12,40.2680613333,-111.634312167,1497.5,0.209378888889,0.612086968674,0.5329
1511903036205746256,262,1511903036204212903,/gps,1,12,40.2680618333,-111.634311667,1497.4,0.0411555555555,0.612086968674,0.5329
1511903036403910996,263,1511903036402647972,/gps,1,12,40.2680621667,-111.634311333,1497.5,0.168737777778,0.612086968674,0.5329
1511903036605497714,264,1511903036603787899,/gps,1,12,40.2680623333,-111.634311833,1497.6,0.563831111111,0.612086968674,0.5329
1511903036803264798,265,1511903036802155971,/gps,1,12,40.2680621667,-111.634313667,1497.7,1.12097444444,5.46235695997,0.5329
1511903037004815683,266,1511903037003707885,/gps,1,12,40.2680613333,-111.634315667,1497.5,1.14875444444,4.80838208924,0.5329
1511903037205003704,267,1511903037203516006,/gps,1,12,40.26806,-111.634318833,1497.4,1.91270444444,4.39613531992,0.5329
1511903037405566152,268,1511903037403975009,/gps,1,12,40.2680588333,-111.634323167,1497.3,2.26098333333,4.37815842863,0.5329
1511903037608810162,269,1511903037606061935,/gps,1,12,40.2680565,-111.634329333,1497.4,3.26929444444,4.27692933201,0.4761
1511903037807830110,270,1511903037804857969,/gps,1,12,40.2680533333,-111.634336333,1497.5,3.48896222222,4.19297899499,0.4761
1511903038008364328,271,1511903038006160020,/gps,1,12,40.2680501667,-111.634343,1497.4,3.38144333333,4.20030937785,0.4761
1511903038203233912,272,1511903038201189041,/gps,1,12,40.2680478333,-111.6343495,1497.6,2.59845888889,4.2421972799,0.4761
1511903038405797662,273,1511903038404309988,/gps,1,12,40.2680465,-111.634355167,1497.7,2.31191333333,4.30293473787,0.4761
1511903038606495474,274,1511903038604948043,/gps,1,12,40.268045,-111.634360333,1497.7,2.31191333333,4.2643629614,0.4761
1511903038809158911,275,1511903038805603981,/gps,1,12,40.2680431667,-111.6343655,1497.6,2.73324333333,4.27518400276,0.4761
1511903039006446515,276,1511903039005059957,/gps,1,12,40.2680418333,-111.634370667,1497.6,2.07166777778,4.31672283896,0.4761
1511903039207300995,277,1511903039205393075,/gps,1,12,40.2680406667,-111.634375333,1497.7,2.02125222222,4.3308600059,0.4761
1511903039406556047,278,1511903039405133962,/gps,1,12,40.2680391667,-111.6343795,1497.8,1.77071777778,4.26541015895,0.4761
1511903039604517869,279,1511903039602575063,/gps,1,12,40.2680376667,-111.634382333,1497.7,1.24907111111,4.21880986792,0.4761
1511903039806588026,280,1511903039805371046,/gps,1,12,40.2680363333,-111.634384833,1497.5,1.46410888889,4.16016680505,0.4761
1511903040006122505,281,1511903040004473924,/gps,1,12,40.2680348333,-111.634387167,1497.4,1.50166333333,4.10937772382,0.4761
1511903040207902557,282,1511903040205676078,/gps,1,12,40.2680335,-111.634389167,1497.3,1.13229222222,4.06312649864,0.4761
1511903040405910161,283,1511903040404607057,/gps,1,12,40.2680318333,-111.634391333,1497.3,1.44404555555,3.97812896407,0.4761
1511903040605428650,284,1511903040604094028,/gps,1,12,40.2680305,-111.6343935,1497.2,1.13229222222,4.13363780042,0.4761
1511903040806870629,285,1511903040805705070,/gps,1,12,40.2680298333,-111.634396,1497.3,1.04946666667,4.2921136965,0.4761
1511903041006360317,286,1511903041004864931,/gps,1,12,40.2680295,-111.634398167,1497.2,1.25164333333,4.31480297678,0.4761
1511903041206255213,287,1511903041204696893,/gps,1,12,40.2680285,-111.634400833,1497.3,1.03454777778,4.33417613148,0.4761
1511903041406058390,288,1511903041404612064,/gps,1,12,40.2680273333,-111.634403667,1497.2,2.07938444444,4.18913927064,0.4761
1511903041606345004,289,1511903041604888916,/gps,1,12,40.2680256667,-111.634408333,1497.3,1.86691888889,4.25074939323,0.4761
1511903041808421566,290,1511903041806267023,/gps,1,12,40.2680241667,-111.634413,1497.3,2.48579555555,4.25232018956,0.4761
1511903042007850525,291,1511903042006544113,/gps,1,12,40.2680223333,-111.6344185,1497.2,2.95496888889,4.30747259392,0.4761
1511903042205837243,292,1511903042204480886,/gps,1,12,40.2680201667,-111.6344245,1497.2,2.83870444444,4.26558469187,0.4761
1511903042407166358,293,1511903042406109094,/gps,1,12,40.2680176667,-111.634430333,1497.3,2.85310888889,4.25057486031,0.4761
1511903042607476670,294,1511903042605995893,/gps,1,12,40.2680153333,-111.634437,1497.4,2.98995111111,4.30433100127,0.4761
1511903042807638806,295,1511903042806365013,/gps,1,12,40.2680131667,-111.634443333,1497.4,3.02441888889,4.2851323795,0.4761
1511903043007462295,296,1511903043006370067,/gps,1,12,40.2680108333,-111.634450167,1497.5,3.25386111111,4.29961861229,0.4761
1511903043207122087,297,1511903043205940008,/gps,1,12,40.2680086667,-111.634456667,1497.6,2.71163666666,4.32387868889,0.4761
1511903043407773128,298,1511903043406064987,/gps,1,12,40.2680066667,-111.634461833,1497.5,2.48476666666,4.32579855107,0.4761
1511903043605945524,299,1511903043602960109,/gps,1,12,40.2680041667,-111.634466833,1497.5,2.32580333333,4.26802815283,0.4761
1511903043812470680,300,1511903043807039022,/gps,1,12,40.2680023333,-111.634471,1497.5,2.01096333333,4.25424005174,0.4761
1511903044010737868,301,1511903044006387948,/gps,1,12,40.2680006667,-111.634474833,1497.4,1.85354333333,4.3086943244,0.4761
1511903044212465003,302,1511903044206768989,/gps,1,12,40.2679996667,-111.6344785,1497.2,1.58603222222,4.42475871966,0.4761
1511903044409389586,303,1511903044407171964,/gps,1,12,40.2679986667,-111.634481333,1497.1,0.991848888888,4.46472675953,0.4761
1511903044607505420,304,1511903044606178045,/gps,1,12,40.267997,-111.634485167,1497.3,2.03822888889,4.4874160398,0.4761
1511903044808649065,305,1511903044805815935,/gps,1,12,40.2679951667,-111.63449,1497.3,2.08195666666,4.4638540949,0.4761
1511903045005418284,306,1511903045002883911,/gps,1,12,40.2679938333,-111.634494,1497.4,1.57265666667,4.44273561095,0.4761
1511903045207701096,307,1511903045204976081,/gps,1,12,40.2679931667,-111.634496667,1497.3,0.854492222221,4.44273561095,0.4761
1511903045414696044,308,1511903045413431882,/gps,1,12,40.2679926667,-111.634497833,1497.2,0.237158888889,4.44273561095,0.4761
1511903045605942450,309,1511903045604762077,/gps,1,12,40.2679931667,-111.634497333,1496.9,0.455797777777,4.44273561095,0.4761
1511903045807853336,310,1511903045805555105,/gps,1,12,40.2679941667,-111.634496333,1496.6,0.654887777777,4.44273561095,0.4761
1511903046007344534,311,1511903046005664110,/gps,1,12,40.2679951667,-111.634495167,1496.2,0.39355,4.44273561095,0.4761
1511903046206996044,312,1511903046205297946,/gps,1,12,40.2679951667,-111.634494167,1496.0,0.528334444444,4.44273561095,0.4761
1511903046404106773,313,1511903046402374982,/gps,1,12,40.267994,-111.634493667,1496.0,0.636882222222,4.44273561095,0.4761
1511903046605528804,314,1511903046604546070,/gps,1,12,40.2679928333,-111.6344925,1495.9,0.937317777777,4.44273561095,0.4761
1511903046805524377,315,1511903046804529905,/gps,1,12,40.2679918333,-111.634490667,1495.8,0.877642222221,4.44273561095,0.4761
1511903047006446617,316,1511903047005361080,/gps,1,12,40.2679908333,-111.634489333,1495.9,0.88330111111,4.44273561095,0.4761
1511903047207640887,317,1511903047206281900,/gps,1,12,40.2679891667,-111.634487833,1496.0,1.27427888889,3.58647707992,0.4761
1511903047407186304,318,1511903047406198024,/gps,1,12,40.2679875,-111.634486667,1496.1,1.03866333333,3.07736453712,0.5476
1511903047607307346,319,1511903047606409072,/gps,1,12,40.2679863333,-111.634484,1496.0,1.39157222222,2.72760055502,0.4761
1511903047804623439,320,1511903047803294897,/gps,1,12,40.2679853333,-111.634481333,1495.9,1.22437777778,2.48290539389,0.4761
1511903048010204897,321,1511903048007245063,/gps,1,12,40.2679848333,-111.634478167,1495.7,1.29228444444,2.29580609807,0.4761
1511903048207758283,322,1511903048206608057,/gps,1,12,40.2679843333,-111.634474833,1495.6,1.05564,2.22337493412,0.4761
1511903048407746824,323,1511903048406826019,/gps,1,12,40.2679843333,-111.634472333,1495.6,0.573605555555,2.22337493412,0.4761
1511903048607161095,324,1511903048605886936,/gps,1,12,40.2679845,-111.634471,1495.6,0.614761111111,2.22337493412,0.4761
1511903048808934793,325,1511903048807341098,/gps,1,12,40.2679843333,-111.634469833,1495.5,0.777325555555,2.37207698639,0.4761
1511903049011247137,326,1511903049007858991,/gps,1,12,40.2679833333,-111.6344685,1495.5,1.07981888889,2.40000225442,0.4761
1511903049206254949,327,1511903049204122066,/gps,1,12,40.2679821667,-111.634466667,1495.4,1.13898,2.48063646586,0.4761
1511903049411844793,328,1511903049407304048,/gps,1,12,40.2679808333,-111.6344645,1495.4,1.26604777778,2.4497441381,0.4761
1511903049611934949,329,1511903049607459068,/gps,1,12,40.2679796667,-111.6344625,1495.4,0.995964444444,2.50262761443,0.4761
1511903049812113438,330,1511903049807562112,/gps,1,12,40.2679786667,-111.634461167,1495.4,1.00522444444,2.65429672643,0.4761
1511903050008742188,331,1511903050006474018,/gps,1,12,40.2679773333,-111.63446,1495.4,1.12406111111,2.72986948304,0.4761
1511903050211180001,332,1511903050206867933,/gps,1,12,40.267976,-111.634458667,1495.4,1.05306777778,2.81626328102,0.4761
1511903050410289584,333,1511903050407435894,/gps,1,12,40.267975,-111.634457333,1495.4,0.805619999999,2.70718020277,0.4761
1511903050608385001,334,1511903050603585958,/gps,1,12,40.2679743333,-111.6344555,1495.4,0.82311111111,2.62759318888,0.4761
1511903050806646355,335,1511903050804795026,/gps,1,12,40.267974,-111.634454,1495.3,0.474317777777,2.62759318888,0.4761
1511903051008117657,336,1511903051006599903,/gps,1,12,40.2679735,-111.634452833,1495.3,0.728967777777,2.68239652739,0.4761
1511903051206467813,337,1511903051204824924,/gps,1,12,40.267973,-111.634452,1495.2,0.567432222222,2.68239652739,0.4761
1511903051407477865,338,1511903051404556989,/gps,1,12,40.2679721667,-111.6344515,1495.3,0.602414444444,2.68239652739,0.4761
1511903051607305990,339,1511903051605387926,/gps,1,12,40.2679715,-111.634451333,1495.2,0.558172222222,2.68239652739,0.4761
1511903051807300261,340,1511903051805425882,/gps,1,12,40.2679706667,-111.634451,1495.1,0.731539999999,2.68239652739,0.4761
1511903052003416302,341,1511903052002362012,/gps,1,12,40.2679695,-111.634450167,1495.1,0.987218888888,2.73964332686,0.4761
1511903052207950521,342,1511903052206065893,/gps,1,12,40.2679685,-111.634449333,1495.0,0.774238888888,2.83511283694,0.4761
1511903052405944583,343,1511903052404808044,/gps,1,12,40.2679676667,-111.634449167,1494.9,0.434705555555,2.83511283694,0.4761
1511903052606982604,344,1511903052605940103,/gps,1,12,40.267967,-111.6344495,1494.9,0.567946666666,2.83511283694,0.4761
1511903052809385156,345,1511903052806014060,/gps,1,12,40.2679665,-111.63445,1494.7,0.634824444444,2.83511283694,0.4761
1511903053006350781,346,1511903053004970073,/gps,1,12,40.2679663333,-111.6344505,1494.7,0.14353,2.83511283694,0.4761
1511903053206068593,347,1511903053204726934,/gps,1,12,40.267967,-111.634451167,1494.6,0.440364444444,2.83511283694,0.4761
1511903053407040833,348,1511903053404129028,/gps,1,12,40.2679676667,-111.634452,1494.6,0.361654444444,2.83511283694,0.4761
1511903053606290833,349,1511903053604795932,/gps,1,12,40.2679683333,-111.634452833,1494.6,0.351365555555,2.83511283694,0.4761
1511903053810682447,350,1511903053805386066,/gps,1,12,40.2679691667,-111.634453333,1494.6,0.170795555555,2.83511283694,0.4761
1511903054012814166,351,1511903054007890939,/gps,1,12,40.26797,-111.6344535,1494.7,0.375544444444,2.83511283694,0.4761
1511903054213045989,352,1511903054206192016,/gps,1,12,40.2679705,-111.634454,1494.7,0.206292222222,2.83511283694,0.4761
1511903054408694010,353,1511903054405719995,/gps,1,12,40.2679715,-111.634454167,1494.6,0.124495555555,2.83511283694,0.4761
1511903054608868124,354,1511903054605707883,/gps,1,12,40.267972,-111.634453667,1494.5,0.244875555555,2.83511283694,0.4761
1511903054807497707,355,1511903054805496931,/gps,1,12,40.2679723333,-111.634453,1494.4,0.294776666666,2.83511283694,0.4761
1511903055007493957,356,1511903055005601882,/gps,1,12,40.2679726667,-111.634452333,1494.3,0.0426988888889,2.83511283694,0.4761
1511903055207652186,357,1511903055205779075,/gps,1,12,40.2679728333,-111.634452,1494.2,0.0848833333333,2.83511283694,0.4761
1511903055407156561,358,1511903055405599117,/gps,1,12,40.2679731667,-111.634451833,1494.1,0.187772222222,2.83511283694,0.4761
1511903055607630363,359,1511903055605988979,/gps,1,12,40.2679736667,-111.634452,1494.0,0.128611111111,2.83511283694,0.4761
1511903055806855884,360,1511903055804797887,/gps,1,12,40.2679736667,-111.634452667,1494.0,0.432647777777,2.83511283694,0.4761
1511903056007605415,361,1511903056006072998,/gps,1,12,40.2679738333,-111.634453333,1494.0,0.0709933333333,2.83511283694,0.4761
1511903056206861821,362,1511903056204961061,/gps,1,12,40.2679738333,-111.634453833,1494.0,0.205263333333,2.83511283694,0.4761
1511903056406848176,363,1511903056405241012,/gps,1,12,40.2679738333,-111.634454167,1493.9,0.145587777778,2.83511283694,0.4761
1511903056606993957,364,1511903056605464935,/gps,1,12,40.2679738333,-111.634454333,1493.9,0.216581111111,2.83511283694,0.4761
1511903056809556925,365,1511903056806030035,/gps,1,12,40.2679738333,-111.634454333,1493.9,0.0663633333333,2.83511283694,0.4761
1511903057008024477,366,1511903057006043910,/gps,1,12,40.2679741667,-111.634454833,1493.8,0.224812222222,2.83511283694,0.4761
1511903057207386769,367,1511903057205558061,/gps,1,12,40.267973,-111.634456,1493.8,1.20534333333,3.25451545619,0.4761
1511903057404411613,368,1511903057401297092,/gps,1,12,40.2679718333,-111.634457167,1493.9,0.428532222222,3.25451545619,0.4761
1511903057605829269,369,1511903057602821111,/gps,1,12,40.2679716667,-111.634458,1493.9,0.422873333333,3.25451545619,0.4761
1511903057805731612,370,1511903057804284095,/gps,1,12,40.2679715,-111.634458333,1493.9,0.128096666667,3.25451545619,0.4761
1511903058006203279,371,1511903058004667043,/gps,1,12,40.2679715,-111.6344585,1493.9,0.164107777778,3.25451545619,0.4761
1511903058205578539,372,1511903058204159021,/gps,1,12,40.2679713333,-111.6344585,1493.9,0.127582222222,3.25451545619,0.4761
1511903058406651196,373,1511903058405365943,/gps,1,12,40.2679713333,-111.634458667,1493.8,0.225841111111,3.25451545619,0.4761
1511903058614922341,374,1511903058613262891,/gps,1,12,40.2679713333,-111.634458667,1493.8,0.0941433333333,3.25451545619,0.4761
1511903058806176352,375,1511903058801353931,/gps,1,12,40.267971,-111.634458333,1493.7,0.306094444444,3.25451545619,0.4761
1511903059006175206,376,1511903059003598928,/gps,1,12,40.2679705,-111.634457833,1493.8,0.442936666666,3.25451545619,0.49
1511903059206385570,377,1511903059203890085,/gps,1,12,40.2679703333,-111.634457,1493.7,0.206806666666,3.25451545619,0.49
1511903059406672654,378,1511903059404027938,/gps,1,12,40.2679705,-111.6344565,1493.7,0.228927777778,3.25451545619,0.49
1511903059605818383,379,1511903059603266954,/gps,1,12,40.2679705,-111.6344565,1493.9,0.0787099999999,3.25451545619,0.49
1511903059806039060,380,1511903059803349018,/gps,1,12,40.26797,-111.634456333,1494.1,0.287574444444,3.25451545619,0.49
1511903060004898435,381,1511903060002403974,/gps,1,12,40.2679698333,-111.634455833,1494.1,0.202176666666,3.25451545619,0.49
1511903060201374112,382,1511903060198978900,/gps,1,12,40.267969,-111.634455833,1494.0,0.474317777777,3.25451545619,0.5329
1511903060402032809,383,1511903060400767087,/gps,1,12,40.2679686667,-111.634455667,1493.9,0.220696666666,3.25451545619,0.5329
1511903060603377653,384,1511903060602051973,/gps,1,12,40.2679686667,-111.6344555,1493.7,0.108547777778,3.25451545619,0.5329
1511903060803999476,385,1511903060802541971,/gps,1,12,40.267969,-111.634455667,1493.7,0.130668888889,3.25451545619,0.5329
1511903061004307705,386,1511903061002593040,/gps,1,12,40.2679688333,-111.634455833,1493.7,0.0411555555555,3.25451545619,0.5329
1511903061203926924,387,1511903061201972007,/gps,1,12,40.2679686667,-111.634455833,1493.6,0.100316666667,3.25451545619,0.5329
1511903061406225465,388,1511903061403331995,/gps,1,12,40.2679686667,-111.634455667,1493.6,0.0910566666666,3.25451545619,0.5041
1511903061601533226,389,1511903061600058078,/gps,1,12,40.2679686667,-111.634455667,1493.6,0.102888888889,3.25451545619,0.5041
1511903061806609319,390,1511903061803504943,/gps,1,12,40.267969,-111.6344555,1493.5,0.0529877777777,3.25451545619,0.5041
1511903062004593121,391,1511903062003143072,/gps,1,12,40.2679695,-111.634455167,1493.5,0.0684211111111,3.25451545619,0.5476
1511903062204907809,392,1511903062203228950,/gps,1,12,40.26797,-111.634454667,1493.4,0.21298,3.25451545619,0.5476
1511903062404479007,393,1511903062402944087,/gps,1,12,40.2679705,-111.634454333,1493.3,0.138385555555,3.25451545619,0.5476
1511903062604605048,394,1511903062603113889,/gps,1,12,40.2679708333,-111.634453833,1493.3,0.134784444444,3.25451545619,0.5476
1511903062805008746,395,1511903062803255081,/gps,1,12,40.267971,-111.634453667,1493.3,0.169252222222,3.25451545619,0.5476
1511903063002471142,396,1511903063000655889,/gps,1,12,40.267971,-111.634453167,1493.3,0.289117777778,3.25451545619,0.5476
1511903063204971090,397,1511903063202402114,/gps,1,12,40.2679711667,-111.634452667,1493.2,0.15279,3.25451545619,0.5929
1511903063405137704,398,1511903063403080940,/gps,1,12,40.2679713333,-111.6344525,1493.2,0.164107777778,3.25451545619,0.5929
1511903063606829475,399,1511903063603085994,/gps,1,12,40.2679716667,-111.634452167,1493.1,0.112663333333,3.25451545619,0.5476
1511903063805687391,400,1511903063803426027,/gps,1,12,40.2679721667,-111.634451667,1493.1,0.191887777778,3.25451545619,0.5476
1511903064010838433,401,1511903064004719972,/gps,1,12,40.2679726667,-111.634451333,1492.9,0.119351111111,3.25451545619,0.5476
1511903064204312235,402,1511903064203248023,/gps,1,12,40.2679725,-111.634451,1492.9,0.0560744444444,3.25451545619,0.5476
1511903064400574266,403,1511903064399319887,/gps,1,12,40.2679726667,-111.634450667,1492.8,0.0252077777778,3.25451545619,0.5476
1511903064603778849,404,1511903064602134943,/gps,1,12,40.267973,-111.634450333,1492.7,0.0694499999999,3.25451545619,0.5476
1511903064804465047,405,1511903064802413940,/gps,1,12,40.2679735,-111.634450167,1492.6,0.190344444444,3.25451545619,0.5476
1511903065004297287,406,1511903065002721071,/gps,1,12,40.2679743333,-111.634450667,1492.4,0.533478888888,3.25451545619,0.5476
1511903065204081505,407,1511903065202755928,/gps,1,12,40.267975,-111.634451167,1492.3,0.188801111111,3.25451545619,0.5476
1511903065404519422,408,1511903065403116941,/gps,1,12,40.2679756667,-111.6344515,1492.1,0.305065555555,3.25451545619,0.5476
1511903065604684214,409,1511903065603101968,/gps,1,12,40.267976,-111.634451667,1492.0,0.126553333333,3.25451545619,0.5476
1511903065801394943,410,1511903065799779891,/gps,1,12,40.267976,-111.6344515,1492.0,0.223783333333,3.25451545619,0.5476
1511903066005684734,411,1511903066004050016,/gps,1,12,40.267976,-111.634451167,1491.9,0.0684211111111,3.25451545619,0.5476
1511903066206356349,412,1511903066204457044,/gps,1,12,40.2679763333,-111.634451,1491.8,0.0910566666666,3.25451545619,0.5476
1511903066404740463,413,1511903066403515100,/gps,1,12,40.2679765,-111.634450333,1491.8,0.28706,3.25451545619,0.5476
1511903066606126140,414,1511903066604886054,/gps,1,12,40.2679768333,-111.634449833,1491.8,0.164622222222,3.25451545619,0.5476
1511903066805561869,415,1511903066804311990,/gps,1,12,40.2679773333,-111.63445,1491.8,0.15742,3.25451545619,0.5041
1511903067005591557,416,1511903067004265069,/gps,1,12,40.2679773333,-111.634449833,1491.8,0.15742,3.25451545619,0.5041
1511903067204335411,417,1511903067203118085,/gps,1,12,40.2679773333,-111.634449833,1491.9,0.0925999999999,3.25451545619,0.5041
1511903067406840671,418,1511903067405355930,/gps,1,12,40.2679776667,-111.634449333,1491.9,0.0817966666666,3.25451545619,0.5041
1511903067604877807,419,1511903067603584051,/gps,1,12,40.2679781667,-111.634449167,1491.9,0.12038,3.25451545619,0.5041
1511903067805248848,420,1511903067803925991,/gps,1,12,40.2679785,-111.634449,1491.9,0.0612188888888,3.25451545619,0.5041
1511903068008198744,421,1511903068006588935,/gps,1,12,40.2679791667,-111.634449,1492.0,0.269568888889,3.25451545619,0.5041
1511903068206518952,422,1511903068204618930,/gps,1,12,40.2679801667,-111.634449,1491.9,0.131183333333,3.25451545619,0.5041
1511903068406350098,423,1511903068404911994,/gps,1,12,40.2679808333,-111.634448833,1491.9,0.116264444444,3.25451545619,0.5041
1511903068607384629,424,1511903068605503082,/gps,1,12,40.2679815,-111.6344485,1491.9,0.227898888889,3.25451545619,0.5041
1511903068811235150,425,1511903068805947065,/gps,1,12,40.2679825,-111.634448667,1492.0,0.316897777778,3.25451545619,0.5041
1511903069013170723,426,1511903069010307073,/gps,1,12,40.2679833333,-111.634448667,1492.0,0.478433333333,3.25451545619,0.5625
1511903069210768014,427,1511903069205116033,/gps,1,12,40.2679838333,-111.634448667,1491.9,0.0807677777777,3.25451545619,0.5625
1511903069410284160,428,1511903069404704093,/gps,1,12,40.267984,-111.634448333,1491.9,0.0884844444444,3.25451545619,0.5625
1511903069605921556,429,1511903069604582071,/gps,1,12,40.2679841667,-111.634448,1491.9,0.112663333333,3.25451545619,0.5625
1511903069806444472,430,1511903069804425001,/gps,1,12,40.2679843333,-111.634448,1491.9,0.0797388888888,3.25451545619,0.5329
1511903070007769316,431,1511903070005692005,/gps,1,12,40.2679848333,-111.634448167,1491.8,0.200633333333,3.25451545619,0.5329
1511903070207187233,432,1511903070205293893,/gps,1,12,40.2679858333,-111.634448667,1491.9,0.0817966666666,3.25451545619,0.4761
1511903070405514733,433,1511903070404042005,/gps,1,12,40.2679866667,-111.634448833,1491.9,0.0288088888889,3.25451545619,0.4761
1511903070605744681,434,1511903070603996992,/gps,1,12,40.2679878333,-111.634449,1491.9,0.141986666667,3.25451545619,0.4761
1511903070806054055,435,1511903070804568052,/gps,1,12,40.2679891667,-111.634449667,1491.9,0.0905422222221,3.25451545619,0.4761
1511903071007084524,436,1511903071005667924,/gps,1,12,40.2679896667,-111.63445,1491.8,0.159992222222,3.25451545619,0.5329
1511903071202461451,437,1511903071201059103,/gps,1,12,40.2679903333,-111.634449833,1491.8,0.0617333333333,3.25451545619,0.5625
1511903071406674889,438,1511903071403783082,/gps,1,12,40.2679906667,-111.63445,1491.7,0.0267511111111,3.25451545619,0.5625
1511903071607264420,439,1511903071604157924,/gps,1,12,40.2679913333,-111.634450167,1491.6,0.229442222222,3.25451545619,0.5625
1511903071817330565,440,1511903071813728094,/gps,1,12,40.267992,-111.634450667,1491.6,0.299921111111,3.25451545619,0.5625
1511903072006683899,441,1511903072004085063,/gps,1,12,40.2679926667,-111.634451333,1491.6,0.381203333333,3.25451545619,0.5625
1511903072204646503,442,1511903072203226089,/gps,1,12,40.2679933333,-111.634451833,1491.6,0.3704,3.25451545619,0.5625
1511903072404414680,443,1511903072403084039,/gps,1,12,40.2679941667,-111.634452667,1491.7,0.678037777777,3.25451545619,0.5625
1511903072600642961,444,1511903072599260091,/gps,1,12,40.2679953333,-111.634453333,1491.7,0.585437777777,3.25451545619,0.5625
1511903072804203430,445,1511903072802697896,/gps,1,12,40.2679961667,-111.634453833,1491.6,0.209893333333,3.25451545619,0.5625
1511903073005894263,446,1511903073004056930,/gps,1,12,40.267997,-111.634453667,1491.6,0.233043333333,3.25451545619,0.5041
1511903073204774784,447,1511903073203274965,/gps,1,12,40.2679976667,-111.634453167,1491.6,0.274713333333,3.25451545619,0.5329
1511903073404394367,448,1511903073402863979,/gps,1,12,40.2679983333,-111.634452833,1491.4,0.216581111111,3.25451545619,0.5329
1511903073604477752,449,1511903073602814912,/gps,1,12,40.2679988333,-111.6344525,1491.4,0.205777777778,3.25451545619,0.5329
1511903073806419263,450,1511903073803488016,/gps,1,12,40.2679993333,-111.634452333,1491.4,0.284487777778,3.25451545619,0.5329
1511903074003255721,451,1511903074001303911,/gps,1,12,40.2679998333,-111.634452,1491.4,0.12038,3.25451545619,0.4761
1511903074206233273,452,1511903074204451084,/gps,1,12,40.268,-111.634451833,1491.5,0.209378888889,3.25451545619,0.4761
1511903074404940721,453,1511903074403259992,/gps,1,12,40.2680001667,-111.634452,1491.5,0.107518888889,3.25451545619,0.4761
1511903074605407544,454,1511903074603492021,/gps,1,12,40.2680003333,-111.634452333,1491.5,0.173367777778,3.25451545619,0.4761
1511903074806138221,455,1511903074802930116,/gps,1,12,40.2680003333,-111.6344525,1491.5,0.0704788888888,3.25451545619,0.5041
1511903075006042439,456,1511903075002779006,/gps,1,12,40.2680006667,-111.634453167,1491.6,0.20372,3.25451545619,0.5041
1511903075204558950,457,1511903075202989101,/gps,1,12,40.2680006667,-111.634453667,1491.7,0.261337777778,3.25451545619,0.5041
1511903075400718377,458,1511903075399538040,/gps,1,12,40.2680006667,-111.634454167,1491.7,0.168737777778,3.25451545619,0.5041
1511903075603196345,459,1511903075602050065,/gps,1,12,40.2680008333,-111.634454333,1491.8,0.124495555555,3.25451545619,0.5041
1511903075803639418,460,1511903075802334070,/gps,1,12,40.2680008333,-111.6344545,1491.8,0.0282944444444,3.25451545619,0.5041
1511903076006379158,461,1511903076003144979,/gps,1,12,40.268001,-111.634454833,1491.9,0.0375544444444,3.25451545619,0.5041
1511903076203971345,462,1511903076203072071,/gps,1,12,40.2680011667,-111.634455,1491.9,0.181598888889,3.25451545619,0.5041
1511903076405564001,463,1511903076402966022,/gps,1,12,40.2680011667,-111.634455333,1491.9,0.132726666667,3.25451545619,0.5041
1511903076604290512,464,1511903076603110074,/gps,1,12,40.2680013333,-111.634455667,1491.9,0.107518888889,3.25451545619,0.5041
1511903076800275616,465,1511903076798974990,/gps,1,12,40.2680016667,-111.634455667,1491.9,0.0622477777777,3.25451545619,0.5776
1511903077003719522,466,1511903077002342939,/gps,1,12,40.268002,-111.634455833,1491.9,0.0689355555555,3.25451545619,0.5776
1511903077204094053,467,1511903077202799081,/gps,1,12,40.2680021667,-111.634455833,1491.9,0.0514444444444,3.25451545619,0.5776
1511903077404090303,468,1511903077402966022,/gps,1,12,40.2680023333,-111.634455667,1491.9,0.0900277777777,3.25451545619,0.5776
1511903077603555407,469,1511903077602319002,/gps,1,12,40.2680025,-111.634455833,1491.9,0.104432222222,3.25451545619,0.5776
1511903077802318740,470,1511903077800859928,/gps,1,12,40.2680026667,-111.634456,1491.9,0.0545311111111,3.25451545619,0.6889
1511903078003391449,471,1511903078002147912,/gps,1,12,40.268003,-111.634456167,1491.8,0.0668777777777,3.25451545619,0.5776
1511903078199837959,472,1511903078198590040,/gps,1,12,40.2680035,-111.6344565,1491.8,0.179541111111,3.25451545619,0.5776
1511903078404212125,473,1511903078403011083,/gps,1,12,40.2680038333,-111.634456667,1491.7,0.0226355555555,3.25451545619,0.5041
1511903078606096240,474,1511903078603233098,/gps,1,12,40.268004,-111.6344565,1491.7,0.01852,3.25451545619,0.5041
1511903078808354625,475,1511903078803618907,/gps,1,12,40.2680041667,-111.6344565,1491.6,0.114206666667,3.25451545619,0.5041
1511903079005395979,476,1511903079003490924,/gps,1,12,40.2680043333,-111.634456667,1491.5,0.112663333333,3.25451545619,0.5041
1511903079204946708,477,1511903079203609943,/gps,1,12,40.2680046667,-111.634456667,1491.5,0.0483577777777,3.25451545619,0.5041
1511903079404221031,478,1511903079402837991,/gps,1,12,40.2680046667,-111.634456667,1491.5,0.109062222222,3.25451545619,0.5041
1511903079602756500,479,1511903079599735021,/gps,1,12,40.268005,-111.634456667,1491.5,0.0200633333333,3.25451545619,0.5041
1511903079805871187,480,1511903079804377079,/gps,1,12,40.2680051667,-111.634456667,1491.5,0.0329244444444,3.25451545619,0.5041
1511903080004760927,481,1511903080003312110,/gps,1,12,40.2680055,-111.634456333,1491.5,0.0879699999999,3.25451545619,0.5041
1511903080203824521,482,1511903080202599048,/gps,1,12,40.2680055,-111.634456167,1491.4,0.158448888889,3.25451545619,0.5041
1511903080405417489,483,1511903080404023885,/gps,1,12,40.2680058333,-111.634456167,1491.4,0.203205555555,3.25451545619,0.5041
1511903080603982489,484,1511903080602498054,/gps,1,12,40.2680065,-111.634456167,1491.4,0.153304444444,3.25451545619,0.5041
1511903080804118583,485,1511903080802524089,/gps,1,12,40.2680068333,-111.634456333,1491.4,0.00411555555555,3.25451545619,0.6084
1511903081002361291,486,1511903081000855922,/gps,1,12,40.2680071667,-111.634456,1491.4,0.0679066666666,3.25451545619,0.5041
1511903081206870926,487,1511903081203538894,/gps,1,12,40.2680073333,-111.634456,1491.3,0.0977444444444,3.25451545619,0.5041
1511903081404135093,488,1511903081402803897,/gps,1,12,40.2680076667,-111.634456,1491.3,0.096201111111,3.25451545619,0.5041
1511903081604861968,489,1511903081603544950,/gps,1,12,40.2680081667,-111.634455833,1491.3,0.135298888889,3.25451545619,0.5041
1511903081805125041,490,1511903081803518056,/gps,1,12,40.2680086667,-111.634455833,1491.3,0.0853977777777,3.25451545619,0.5041
1511903082007054572,491,1511903082004051923,/gps,1,12,40.268009,-111.6344555,1491.3,0.146616666667,3.25451545619,0.5041
1511903082204363218,492,1511903082203155040,/gps,1,12,40.2680091667,-111.634455,1491.2,0.173882222222,3.25451545619,0.5041
1511903082404736395,493,1511903082403018951,/gps,1,12,40.2680091667,-111.634454667,1491.2,0.177483333333,3.25451545619,0.5041
1511903082603223426,494,1511903082602205038,/gps,1,12,40.2680093333,-111.6344545,1491.2,0.0334388888889,3.25451545619,0.5041
1511903082804810926,495,1511903082803405046,/gps,1,12,40.2680098333,-111.6344545,1491.2,0.24076,3.25451545619,0.5041
1511903083004181967,496,1511903083002873897,/gps,1,12,40.2680105,-111.634454667,1491.2,0.40744,3.25451545619,0.5041
1511903083204467384,497,1511903083203146934,/gps,1,12,40.2680111667,-111.634454833,1491.2,0.212465555555,3.25451545619,0.5041
1511903083404624207,498,1511903083403243064,/gps,1,12,40.2680116667,-111.634455167,1491.2,0.319984444444,3.25451545619,0.5041
1511903083603085040,499,1511903083601725101,/gps,1,12,40.2680121667,-111.6344555,1491.2,0.174396666667,3.25451545619,0.5041
1511903083806447592,500,1511903083803644895,/gps,1,12,40.2680125,-111.634455667,1491.1,0.13427,3.25451545619,0.6084
1511903084010901238,501,1511903084004012107,/gps,1,12,40.2680128333,-111.634455833,1491.2,0.228413333333,3.25451545619,0.5041
1511903084207168738,502,1511903084203725099,/gps,1,12,40.2680131667,-111.634455833,1491.2,0.0272655555555,3.25451545619,0.5041
1511903084404713269,503,1511903084403814077,/gps,1,12,40.2680133333,-111.634455833,1491.2,0.107004444444,3.25451545619,0.5041
1511903084604660717,504,1511903084603673934,/gps,1,12,40.2680136667,-111.634455667,1491.2,0.100316666667,3.25451545619,0.5041
1511903084804864206,505,1511903084803713083,/gps,1,12,40.268014,-111.634455667,1491.2,0.184171111111,3.25451545619,0.5041
1511903085009472383,506,1511903085008321046,/gps,1,12,40.2680143333,-111.6344555,1491.1,0.146102222222,3.25451545619,0.5041
1511903085204557696,507,1511903085203090906,/gps,1,12,40.2680143333,-111.634455333,1491.2,0.0529877777777,3.25451545619,0.5041
1511903085404547019,508,1511903085403021097,/gps,1,12,40.2680146667,-111.634455167,1491.2,0.0807677777777,3.25451545619,0.5041
1511903085603644831,509,1511903085602255105,/gps,1,12,40.268015,-111.634455,1491.1,0.0745944444444,3.25451545619,0.5776
1511903085803928164,510,1511903085802500009,/gps,1,12,40.2680151667,-111.634454667,1491.1,0.181598888889,3.25451545619,0.5776
1511903086003922487,511,1511903086002363920,/gps,1,12,40.2680153333,-111.634454333,1491.1,0.100316666667,3.25451545619,0.5776
1511903086204939154,512,1511903086203341007,/gps,1,12,40.2680156667,-111.634454,1491.1,0.0354966666666,3.25451545619,0.5041
1511903086400080820,513,1511903086398979902,/gps,1,12,40.268016,-111.634453667,1491.0,0.0205777777778,3.25451545619,0.5041
1511903086604313268,514,1511903086603137969,/gps,1,12,40.2680161667,-111.634453167,1491.0,0.221211111111,3.25451545619,0.5776
1511903086802767174,515,1511903086801258087,/gps,1,12,40.2680163333,-111.634452333,1490.9,0.366798888889,3.25451545619,0.6084
1511903087002872330,516,1511903087001243114,/gps,1,12,40.2680163333,-111.634451667,1490.8,0.389434444444,3.25451545619,0.6084
1511903087204311810,517,1511903087202342987,/gps,1,12,40.2680161667,-111.634451167,1490.7,0.46763,3.25451545619,0.6084
1511903087404320507,518,1511903087402420043,/gps,1,12,40.2680163333,-111.634450667,1490.7,0.111634444444,3.25451545619,0.6084
1511903087603583528,519,1511903087601675987,/gps,1,12,40.2680168333,-111.634450167,1490.6,0.0468144444444,3.25451545619,0.6084
1511903087802134205,520,1511903087798546075,/gps,1,12,40.268017,-111.63445,1490.6,0.153304444444,3.25451545619,0.6084
1511903088005125820,521,1511903088002176046,/gps,1,12,40.2680173333,-111.634449333,1490.6,0.359082222222,3.25451545619,0.6084
1511903088203478893,522,1511903088202153921,/gps,1,12,40.2680175,-111.6344485,1490.6,0.138385555555,3.25451545619,0.6084
1511903088405305038,523,1511903088402118921,/gps,1,12,40.2680175,-111.634447833,1490.6,0.188286666667,3.25451545619,0.6084
1511903088605650715,524,1511903088602475881,/gps,1,12,40.2680173333,-111.634447333,1490.6,0.0812822222222,3.25451545619,0.6084
1511903088804104569,525,1511903088801840066,/gps,1,12,40.2680171667,-111.634447,1490.7,0.133241111111,3.25451545619,0.6084
1511903089004805298,526,1511903089002629995,/gps,1,12,40.2680171667,-111.634446833,1490.8,0.091571111111,3.25451545619,0.6084
1511903089200645298,527,1511903089198509931,/gps,1,12,40.2680171667,-111.634446833,1490.8,0.161021111111,3.25451545619,0.6084
1511903089404275923,528,1511903089402797937,/gps,1,12,40.268017,-111.634446667,1491.0,0.142501111111,3.25451545619,0.6084
1511903089602101496,529,1511903089601124048,/gps,1,12,40.2680175,-111.634446167,1491.0,0.0843688888888,3.25451545619,0.6084
1511903089804831340,530,1511903089802294969,/gps,1,12,40.2680171667,-111.634445667,1491.2,0.0550455555555,3.25451545619,0.6084
1511903090004050350,531,1511903090002249956,/gps,1,12,40.2680168333,-111.634445,1491.3,0.186228888889,3.25451545619,0.6084
1511903090202850454,532,1511903090201319932,/gps,1,12,40.2680166667,-111.634444667,1491.3,0.0550455555555,3.25451545619,0.6724
1511903090403510663,533,1511903090402468919,/gps,1,12,40.2680168333,-111.6344445,1491.4,0.166165555555,3.25451545619,0.6724
1511903090602630090,534,1511903090599617958,/gps,1,12,40.2680173333,-111.634444333,1491.5,0.107004444444,3.25451545619,0.6084
1511903090803740402,535,1511903090802297115,/gps,1,12,40.2680176667,-111.634444,1491.5,0.290146666666,3.25451545619,0.6724
1511903091003849100,536,1511903091002605915,/gps,1,12,40.268018,-111.6344435,1491.5,0.145073333333,3.25451545619,0.6084
1511903091203226964,537,1511903091201491117,/gps,1,12,40.2680181667,-111.634443333,1491.4,0.30095,3.25451545619,0.6724
1511903091402498891,538,1511903091401540994,/gps,1,12,40.2680188333,-111.6344435,1491.3,0.433162222222,3.25451545619,0.6724
1511903091603669152,539,1511903091602222919,/gps,1,12,40.26802,-111.634444167,1491.3,0.38429,3.25451545619,0.6084
1511903091803915922,540,1511903091802449941,/gps,1,12,40.2680211667,-111.634445,1491.3,0.550455555555,3.25451545619,0.6084
1511903092001796547,541,1511903092000463008,/gps,1,12,40.2680216667,-111.634445667,1491.4,0.0951722222221,3.25451545619,0.6084
1511903092203105037,542,1511903092201766014,/gps,1,12,40.268022,-111.634446,1491.5,0.0586466666666,3.25451545619,0.6084
1511903092403067485,543,1511903092401813983,/gps,1,12,40.2680221667,-111.634445833,1491.6,0.182113333333,3.25451545619,0.6084
1511903092603433110,544,1511903092602073907,/gps,1,12,40.2680221667,-111.634446,1491.6,0.184685555555,3.25451545619,0.6084
1511903092803726807,545,1511903092802337884,/gps,1,12,40.2680218333,-111.634446167,1491.6,0.0318955555555,3.25451545619,0.6724
1511903093005669359,546,1511903093004209995,/gps,1,12,40.2680218333,-111.634446167,1491.5,0.123466666667,3.25451545619,0.6084
1511903093203682172,547,1511903093202372074,/gps,1,12,40.268022,-111.634446,1491.4,0.0200633333333,3.25451545619,0.6084
1511903093399750609,548,1511903093398183107,/gps,1,12,40.2680218333,-111.634445333,1491.3,0.279857777778,3.25451545619,0.6084
1511903093605167797,549,1511903093603951930,/gps,1,12,40.2680211667,-111.6344445,1491.3,0.45837,3.25451545619,0.6084
1511903093805951859,550,1511903093803523063,/gps,1,12,40.268021,-111.634443833,1491.3,0.232014444444,3.25451545619,0.6084
1511903094004734828,551,1511903094003446102,/gps,1,12,40.2680211667,-111.634443333,1491.2,0.211436666666,3.25451545619,0.6084
1511903094203879932,552,1511903094202474117,/gps,1,12,40.2680215,-111.634443167,1491.2,0.247447777778,3.25451545619,0.6084
1511903094405074203,553,1511903094403745889,/gps,1,12,40.2680215,-111.634443167,1491.1,0.0313811111111,3.25451545619,0.6084
1511903094604628317,554,1511903094603267908,/gps,1,12,40.2680213333,-111.634443,1491.1,0.147645555555,3.25451545619,0.6084
1511903094803971078,555,1511903094801846027,/gps,1,12,40.2680208333,-111.634442667,1491.1,0.263395555555,3.25451545619,0.6084
1511903095005168421,556,1511903095003319978,/gps,1,12,40.2680205,-111.634442333,1491.1,0.114206666667,3.25451545619,0.5776
1511903095205098629,557,1511903095203305006,/gps,1,12,40.2680208333,-111.634442167,1491.1,0.12501,3.25451545619,0.5776
1511903095406440296,558,1511903095403479099,/gps,1,12,40.2680211667,-111.634442,1491.0,0.0838544444444,3.25451545619,0.5776
1511903095604448056,559,1511903095603090047,/gps,1,12,40.2680208333,-111.634442167,1491.1,0.0617333333333,3.25451545619,0.5776
1511903095803442275,560,1511903095801758050,/gps,1,12,40.2680203333,-111.634442667,1491.2,0.292204444444,3.25451545619,0.5776
1511903096005751390,561,1511903096003562927,/gps,1,12,40.2680198333,-111.634442667,1491.2,0.246933333333,3.25451545619,0.5776
1511903096205184619,562,1511903096203383922,/gps,1,12,40.2680191667,-111.6344425,1491.3,0.192402222222,3.25451545619,0.5776
1511903096404836962,563,1511903096403508901,/gps,1,12,40.2680188333,-111.634442667,1491.4,0.170795555555,3.25451545619,0.5776
1511903096604117483,564,1511903096602823972,/gps,1,12,40.2680181667,-111.634442833,1491.4,0.241274444444,3.25451545619,0.5776
1511903096804020712,565,1511903096802761077,/gps,1,12,40.2680176667,-111.634443167,1491.5,0.0426988888889,3.25451545619,0.5776
1511903097003712014,566,1511903097002382993,/gps,1,12,40.2680173333,-111.634443167,1491.5,0.0709933333333,3.25451545619,0.5776
1511903097204243681,567,1511903097202511072,/gps,1,12,40.268017,-111.6344435,1491.5,0.242303333333,3.25451545619,0.5776
1511903097404230712,568,1511903097402477979,/gps,1,12,40.2680166667,-111.634443833,1491.5,0.142501111111,3.25451545619,0.5776
1511903097604866076,569,1511903097603332042,/gps,1,12,40.2680161667,-111.634443667,1491.4,0.190344444444,3.25451545619,0.5776
1511903097804681962,570,1511903097803448915,/gps,1,12,40.2680156667,-111.6344435,1491.4,0.127067777778,3.25451545619,0.5776
1511903098004907691,571,1511903098003299951,/gps,1,12,40.2680153333,-111.634443667,1491.4,0.2778,3.25451545619,0.5776
1511903098212820451,572,1511903098211091995,/gps,1,12,40.268015,-111.634444667,1491.6,0.49541,3.25451545619,0.5776
1511903098404676337,573,1511903098403598070,/gps,1,12,40.268014,-111.634446833,1492.0,0.701702222222,3.25451545619,0.5776
1511903098605347534,574,1511903098603326082,/gps,1,12,40.268013,-111.634448667,1492.2,0.50467,3.25451545619,0.5041
1511903098804177691,575,1511903098801637887,/gps,1,12,40.2680128333,-111.634449667,1492.3,0.321527777777,3.25451545619,0.4761
1511903099006418888,576,1511903099003142118,/gps,1,12,40.2680128333,-111.634450333,1492.3,0.336446666666,3.25451545619,0.5476
1511903099204116440,577,1511903099202553033,/gps,1,12,40.2680133333,-111.634449833,1492.0,0.0262366666666,3.25451545619,0.5776
1511903099403950920,578,1511903099402709007,/gps,1,12,40.2680131667,-111.6344495,1492.0,0.209893333333,3.25451545619,0.5776
1511903099603024149,579,1511903099601263046,/gps,1,12,40.2680128333,-111.634449,1491.9,0.109062222222,3.25451545619,0.5776
1511903099803548940,580,1511903099802232980,/gps,1,12,40.2680121667,-111.634448333,1491.9,0.146616666667,3.25451545619,0.5776
1511903100011296076,581,1511903100007908105,/gps,1,12,40.2680106667,-111.634447333,1492.1,0.0982588888888,3.25451545619,0.5776
1511903100199247534,582,1511903100198383092,/gps,1,12,40.2680098333,-111.634446,1492.1,0.123981111111,3.25451545619,0.5776
1511903100403300190,583,1511903100401715040,/gps,1,12,40.2680096667,-111.634445667,1492.1,0.20835,3.25451545619,0.5776
1511903100603256596,584,1511903100601769924,/gps,1,12,40.2680095,-111.634445667,1492.0,0.167708888889,3.25451545619,0.64
1511903100804167221,585,1511903100802542924,/gps,1,12,40.2680091667,-111.6344455,1491.9,0.222754444444,3.25451545619,0.5776
1511903101003040502,586,1511903101001626968,/gps,1,12,40.2680093333,-111.6344455,1491.8,0.16205,3.25451545619,0.5776
1511903101203157690,587,1511903101202167987,/gps,1,12,40.2680091667,-111.6344455,1491.7,0.141986666667,3.25451545619,0.5776
1511903101403617221,588,1511903101402188062,/gps,1,12,40.2680086667,-111.634445833,1491.8,0.255164444444,3.25451545619,0.5776
1511903101599941127,589,1511903101598599910,/gps,1,12,40.268008,-111.634445833,1491.8,0.132212222222,3.25451545619,0.5776
1511903101804014773,590,1511903101802339076,/gps,1,12,40.2680081667,-111.634445667,1491.7,0.215552222222,3.25451545619,0.5776
1511903102003961439,591,1511903102002440929,/gps,1,12,40.2680083333,-111.634445833,1491.6,0.0365255555555,3.25451545619,0.5776
1511903102203257012,592,1511903102201709032,/gps,1,12,40.268008,-111.634445333,1491.6,0.0627622222222,3.25451545619,0.5776
1511903102402948366,593,1511903102401619911,/gps,1,12,40.2680076667,-111.634445167,1491.6,0.168223333333,3.25451545619,0.5776
1511903102603987793,594,1511903102602385044,/gps,1,12,40.2680078333,-111.634444833,1491.6,0.121408888889,3.25451545619,0.5776
1511903102804125918,595,1511903102802573919,/gps,1,12,40.2680076667,-111.634444333,1491.6,0.132726666667,3.25451545619,0.5776
1511903103001090866,596,1511903102999360084,/gps,1,12,40.2680071667,-111.634444,1491.7,0.294262222222,3.25451545619,0.5776
1511903103203459824,597,1511903103202341079,/gps,1,12,40.2680075,-111.634443667,1491.8,0.137356666667,3.25451545619,0.5776
1511903103402211751,598,1511903103400871992,/gps,1,12,40.268008,-111.634443333,1491.7,0.251563333333,3.25451545619,0.5776
1511903103602551699,599,1511903103601133108,/gps,1,12,40.2680081667,-111.634443333,1491.7,0.100316666667,3.25451545619,0.5776
1511903103806778626,600,1511903103801584959,/gps,1,12,40.2680088333,-111.634443167,1491.6,0.321013333333,3.25451545619,0.5776
1511903104005691959,601,1511903104002624034,/gps,1,12,40.2680093333,-111.634442833,1491.7,0.200118888889,3.25451545619,0.5776
1511903104202961439,602,1511903104201385974,/gps,1,12,40.268009,-111.6344425,1491.9,0.140443333333,3.25451545619,0.5776
1511903104398842272,603,1511903104397593975,/gps,1,12,40.2680088333,-111.634442,1491.9,0.301978888889,3.25451545619,0.5776
1511903104600843782,604,1511903104599550008,/gps,1,12,40.2680086667,-111.634441333,1491.8,0.145073333333,3.25451545619,0.5776
1511903104804163678,605,1511903104801856040,/gps,1,12,40.2680088333,-111.634440667,1491.7,0.140957777778,3.25451545619,0.5776
1511903105005083469,606,1511903105002060890,/gps,1,12,40.2680088333,-111.634440667,1491.7,0.0257222222222,3.25451545619,0.5776
1511903105203388730,607,1511903105201992988,/gps,1,12,40.2680085,-111.6344405,1491.6,0.12038,3.25451545619,0.5776
1511903105403436178,608,1511903105402448892,/gps,1,12,40.2680081667,-111.63444,1491.6,0.258765555555,3.25451545619,0.5776
1511903105604903365,609,1511903105602515935,/gps,1,12,40.2680083333,-111.6344395,1491.7,0.282944444444,3.25451545619,0.5776
1511903105800348417,610,1511903105798819065,/gps,1,12,40.2680091667,-111.634438833,1491.7,0.500554444444,3.25451545619,0.5776
1511903106004502375,611,1511903106003171920,/gps,1,12,40.26801,-111.634438333,1491.7,0.636367777777,3.25451545619,0.5776
1511903106205991282,612,1511903106203471899,/gps,1,12,40.2680103333,-111.634438,1491.8,0.315868888889,3.25451545619,0.5776
1511903106403916490,613,1511903106402333974,/gps,1,12,40.2680108333,-111.634437833,1491.8,0.385833333333,3.25451545619,0.5776
1511903106603095865,614,1511903106602088928,/gps,1,12,40.2680115,-111.634438167,1491.8,0.434705555555,3.25451545619,0.64
1511903106805507375,615,1511903106804068088,/gps,1,12,40.2680123333,-111.634439167,1491.7,0.762406666666,4.38618694319,0.64
1511903107004167583,616,1511903107002557039,/gps,1,12,40.2680128333,-111.63444,1491.7,0.278828888889,4.38618694319,0.64
1511903107201706750,617,1511903107200222015,/gps,1,12,40.2680131667,-111.634440667,1491.6,0.502612222222,4.38618694319,0.5625
1511903107405884041,618,1511903107404516935,/gps,1,12,40.2680135,-111.634441,1491.6,0.0159477777778,4.38618694319,0.5041
1511903107604780708,619,1511903107603662014,/gps,1,12,40.2680136667,-111.6344415,1491.7,0.533993333333,4.38618694319,0.5041
1511903107804971489,620,1511903107803742885,/gps,1,12,40.2680141667,-111.634442333,1491.7,0.261337777778,4.38618694319,0.5041
1511903108005242427,621,1511903108003869056,/gps,1,12,40.2680145,-111.634442833,1491.8,0.328215555555,4.38618694319,0.5184
1511903108204406906,622,1511903108203238010,/gps,1,12,40.268015,-111.634443167,1491.8,0.119865555555,4.38618694319,0.5184
1511903108405129093,623,1511903108403754949,/gps,1,12,40.2680151667,-111.634443,1491.9,0.246418888889,4.38618694319,0.5184
1511903108603600031,624,1511903108602251052,/gps,1,12,40.268016,-111.634442667,1491.9,0.24539,4.38618694319,0.5184
1511903108806570968,625,1511903108804327964,/gps,1,12,40.268016,-111.634442333,1491.9,0.639968888888,4.38618694319,0.5184
1511903109003995030,626,1511903109002803087,/gps,1,12,40.2680158333,-111.634441833,1491.9,0.145587777778,4.38618694319,0.5184
1511903109204393468,627,1511903109202984094,/gps,1,12,40.2680163333,-111.634441667,1491.8,0.04167,4.38618694319,0.5184
1511903109404972582,628,1511903109403373956,/gps,1,12,40.2680163333,-111.634441833,1491.9,0.140957777778,4.38618694319,0.5184
1511903109604994041,629,1511903109603358030,/gps,1,12,40.2680163333,-111.634441833,1492.0,0.200118888889,4.38618694319,0.5184
1511903109805113520,630,1511903109803855895,/gps,1,12,40.268017,-111.634441333,1491.8,0.0895133333333,4.38618694319,0.5184
1511903110003746801,631,1511903110002504110,/gps,1,12,40.2680173333,-111.6344415,1491.8,0.0771666666666,4.38618694319,0.5184
1511903110204158415,632,1511903110202620029,/gps,1,12,40.2680176667,-111.634441833,1491.8,0.0889988888888,4.38618694319,0.5184
1511903110404344874,633,1511903110402833938,/gps,1,12,40.2680176667,-111.634441833,1491.9,0.194974444444,4.38618694319,0.5184
1511903110606820446,634,1511903110604100942,/gps,1,12,40.2680176667,-111.634442,1492.0,0.18983,4.38618694319,0.5184
1511903110805730186,635,1511903110804289102,/gps,1,12,40.2680176667,-111.634442333,1492.0,0.0740799999999,4.38618694319,0.5184
1511903111005734457,636,1511903111004353046,/gps,1,12,40.2680178333,-111.634442833,1492.0,0.247447777778,4.38618694319,0.5184
1511903111204312842,637,1511903111203044891,/gps,1,12,40.2680185,-111.634443667,1492.1,0.56023,4.38618694319,0.5184
1511903111415764821,638,1511903111412585020,/gps,1,12,40.2680186667,-111.634444333,1492.1,0.0874555555555,4.38618694319,0.5184
1511903111605429873,639,1511903111603923082,/gps,1,12,40.2680186667,-111.6344445,1492.2,0.191373333333,4.38618694319,0.5184
1511903111805413727,640,1511903111803971052,/gps,1,12,40.2680186667,-111.634445,1492.3,0.323071111111,4.38618694319,0.5184
1511903112004981540,641,1511903112003758907,/gps,1,12,40.2680183333,-111.634445333,1492.3,0.182113333333,4.38618694319,0.5184
1511903112204571904,642,1511903112203377962,/gps,1,12,40.268018,-111.6344455,1492.3,0.137871111111,4.38618694319,0.5184
1511903112405357008,643,1511903112403750896,/gps,1,12,40.2680175,-111.634445667,1492.3,0.0787099999999,4.38618694319,0.5184
1511903112601321748,644,1511903112599850893,/gps,1,12,40.268017,-111.634445833,1492.3,0.0257222222222,4.38618694319,0.5184
1511903112804807321,645,1511903112803530931,/gps,1,12,40.2680165,-111.634445833,1492.4,0.108033333333,4.38618694319,0.5184
1511903113005794716,646,1511903113003750085,/gps,1,12,40.268016,-111.634445833,1492.4,0.154333333333,4.38618694319,0.5184
1511903113203958050,647,1511903113202622890,/gps,1,12,40.2680153333,-111.634445833,1492.5,0.0879699999999,4.38618694319,0.5184
1511903113404503102,648,1511903113402906894,/gps,1,12,40.2680148333,-111.634445667,1492.5,0.136327777778,4.38618694319,0.5184
1511903113605104977,649,1511903113603445053,/gps,1,12,40.2680141667,-111.634445667,1492.6,0.105975555555,4.38618694319,0.5184
1511903113806702945,650,1511903113803842067,/gps,1,12,40.2680136667,-111.634446,1492.7,0.159992222222,4.38618694319,0.5184
1511903114000532945,651,1511903113999437093,/gps,1,12,40.2680136667,-111.6344465,1492.7,0.286545555555,4.38618694319,0.5184
1511903114204358674,652,1511903114203217983,/gps,1,12,40.2680133333,-111.634447,1492.8,0.0545311111111,4.38618694319,0.5184
1511903114404609039,653,1511903114403206110,/gps,1,12,40.2680133333,-111.634447167,1492.8,0.136327777778,4.38618694319,0.5184
1511903114604679351,654,1511903114603535890,/gps,1,12,40.2680131667,-111.6344475,1492.9,0.0612188888888,4.38618694319,0.5184
1511903114804482164,655,1511903114803236961,/gps,1,12,40.2680128333,-111.634447667,1493.0,0.0967155555555,4.38618694319,0.5184
1511903115004680966,656,1511903115003539085,/gps,1,12,40.2680128333,-111.634448,1493.0,0.0859122222221,4.38618694319,0.5184
1511903115204170549,657,1511903115203010082,/gps,1,12,40.2680125,-111.634448333,1493.0,0.189315555555,4.38618694319,0.5184
1511903115401937476,658,1511903115399919986,/gps,1,12,40.2680121667,-111.634448667,1493.0,0.225841111111,4.38618694319,0.5184
1511903115603373465,659,1511903115602245092,/gps,1,12,40.2680118333,-111.634448667,1493.0,0.208864444444,4.38618694319,0.5184
1511903115804570809,660,1511903115803222894,/gps,1,12,40.2680115,-111.6344485,1493.1,0.127582222222,4.38618694319,0.5184
1511903116006453361,661,1511903116005172014,/gps,1,12,40.2680113333,-111.634448,1493.1,0.234586666666,4.38618694319,0.5184
1511903116203988621,662,1511903116202897071,/gps,1,12,40.2680111667,-111.6344475,1493.2,0.217095555555,4.38618694319,0.5184
1511903116403914715,663,1511903116402558088,/gps,1,12,40.2680111667,-111.634446667,1493.2,0.210407777778,4.38618694319,0.5184
1511903116604024715,664,1511903116602494955,/gps,1,12,40.268011,-111.634446333,1493.2,0.140443333333,4.38618694319,0.5184
1511903116801113569,665,1511903116799855947,/gps,1,12,40.2680108333,-111.634445667,1493.1,0.264424444444,4.38618694319,0.5184
1511903117005398309,666,1511903117004175901,/gps,1,12,40.2680106667,-111.634444833,1493.1,0.258251111111,4.38618694319,0.5184
1511903117204245288,667,1511903117202990055,/gps,1,12,40.268011,-111.634443667,1493.0,0.446023333333,4.38618694319,0.5184
1511903117403955704,668,1511903117402066946,/gps,1,12,40.2680111667,-111.634442833,1493.0,0.211951111111,4.38618694319,0.5184
1511903117603293308,669,1511903117601955890,/gps,1,12,40.2680113333,-111.634442333,1493.0,0.156391111111,4.38618694319,0.5184
1511903117804523256,670,1511903117803299903,/gps,1,12,40.2680113333,-111.634441667,1493.0,0.116778888889,4.38618694319,0.5184
1511903118004573100,671,1511903118003427982,/gps,1,12,40.2680111667,-111.6344415,1493.0,0.0313811111111,4.38618694319,0.5184
1511903118201312006,672,1511903118200072050,/gps,1,12,40.268011,-111.634441167,1492.9,0.105461111111,4.38618694319,0.5184
1511903118404184089,673,1511903118402585029,/gps,1,12,40.2680103333,-111.634440667,1493.0,0.205777777778,4.38618694319,0.5184
1511903118605197787,674,1511903118602859020,/gps,1,12,40.2680096667,-111.634439833,1493.0,0.281915555555,4.38618694319,0.5184
1511903118805742214,675,1511903118803549051,/gps,1,12,40.2680088333,-111.634439167,1493.0,0.293747777778,4.38618694319,0.5184
1511903119004269922,676,1511903119002809047,/gps,1,12,40.2680081667,-111.634438333,1493.0,0.281401111111,4.38618694319,0.5184
1511903119204509714,677,1511903119203192949,/gps,1,12,40.268008,-111.634437167,1492.9,0.43059,4.38618694319,0.5184
1511903119404760912,678,1511903119403431892,/gps,1,12,40.2680073333,-111.634435833,1492.9,0.472774444444,4.38618694319,0.5184
1511903119601069662,679,1511903119599277973,/gps,1,12,40.2680061667,-111.6344345,1493.1,0.334903333333,4.38618694319,0.4761
1511903119804576172,680,1511903119803078889,/gps,1,12,40.2680056667,-111.6344335,1493.1,0.290661111111,4.38618694319,0.5184
1511903120007990182,681,1511903120006274938,/gps,1,12,40.2680056667,-111.634431667,1493.1,0.77681111111,5.74632202927,0.4761
1511903120207273464,682,1511903120205462932,/gps,1,12,40.2680055,-111.634429333,1493.2,0.853463333333,0.399854931632,0.4761
1511903120405203568,683,1511903120403402090,/gps,1,12,40.268005,-111.634427667,1493.3,0.380174444444,0.399854931632,0.4761
1511903120605049141,684,1511903120603166103,/gps,1,12,40.2680036667,-111.6344265,1493.4,0.769094444444,0.399854931632,0.4761
1511903120805509141,685,1511903120804141998,/gps,1,12,40.2680023333,-111.634425,1493.4,0.465572222222,0.399854931632,0.4761
1511903121003798359,686,1511903121000345945,/gps,1,12,40.2680011667,-111.634423167,1493.5,0.642026666666,0.399854931632,0.4761
1511903121205950026,687,1511903121203553915,/gps,1,12,40.2680005,-111.634421167,1493.4,0.507242222222,0.399854931632,0.4761
1511903121405022994,688,1511903121403860092,/gps,1,12,40.268,-111.6344195,1493.4,0.495924444444,0.399854931632,0.4761
1511903121604136692,689,1511903121603013992,/gps,1,12,40.2679996667,-111.634418167,1493.4,0.514958888888,0.399854931632,0.4761
1511903121804875390,690,1511903121803791999,/gps,1,12,40.2679995,-111.634416667,1493.5,0.593668888888,0.399854931632,0.4761
1511903122005444453,691,1511903122003873109,/gps,1,12,40.2679996667,-111.634415333,1493.4,0.596241111111,0.399854931632,0.4761
1511903122205786380,692,1511903122204339981,/gps,1,12,40.268,-111.634414,1493.4,0.910566666666,0.684867198483,0.4761
1511903122403423932,693,1511903122401489019,/gps,1,12,40.2680005,-111.634412667,1493.5,0.722794444444,0.684867198483,0.4761
1511903122605657734,694,1511903122603158950,/gps,1,12,40.2680008333,-111.634412,1493.6,0.655916666666,0.684867198483,0.4761
1511903122805685598,695,1511903122803632974,/gps,1,12,40.2680013333,-111.634411333,1493.6,0.795845555555,0.684867198483,0.4761
1511903123005846483,696,1511903123004111051,/gps,1,12,40.2680021667,-111.634410167,1493.7,0.970242222221,0.784874564622,0.4761
1511903123204889400,697,1511903123202879905,/gps,1,12,40.2680028333,-111.634408833,1493.7,0.910052222221,0.784874564622,0.4761
1511903123404573410,698,1511903123403290987,/gps,1,12,40.2680035,-111.634407,1493.8,1.13229222222,0.867952237017,0.4761
1511903123604765389,699,1511903123603039026,/gps,1,12,40.2680043333,-111.6344055,1493.8,0.780412222222,0.867952237017,0.4761
1511903123807217108,700,1511903123805073022,/gps,1,12,40.2680048333,-111.634403333,1493.8,1.12509,1.0292206599,0.4761
1511903124005367004,701,1511903124003887891,/gps,1,12,40.2680051667,-111.634401667,1493.9,0.786585555555,1.0292206599,0.4761
1511903124204946066,702,1511903124203445911,/gps,1,12,40.2680056667,-111.634400167,1494.0,0.80459111111,1.0292206599,0.4761
1511903124405560129,703,1511903124404006004,/gps,1,12,40.2680066667,-111.634399333,1494.1,0.927028888888,1.0292206599,0.4761
1511903124615647212,704,1511903124611948966,/gps,1,12,40.2680078333,-111.634398667,1494.1,0.723308888888,1.0292206599,0.4761
1511903124807199556,705,1511903124803819894,/gps,1,12,40.268009,-111.634398,1494.1,0.588009999999,1.0292206599,0.4761
1511903125005729920,706,1511903125002398014,/gps,1,12,40.2680098333,-111.634397833,1494.0,0.461971111111,1.0292206599,0.4761
1511903125206664087,707,1511903125203310012,/gps,1,12,40.2680101667,-111.6343985,1494.1,0.207835555555,1.0292206599,0.4761
1511903125404586587,708,1511903125403187036,/gps,1,12,40.2680103333,-111.634398667,1494.0,0.196517777778,1.0292206599,0.4761
1511903125604645337,709,1511903125603562116,/gps,1,12,40.2680108333,-111.634399333,1494.1,0.307637777778,1.0292206599,0.4761
1511903125806112055,710,1511903125803363084,/gps,1,12,40.2680113333,-111.6344005,1494.2,0.546854444444,1.0292206599,0.4761
1511903126005827993,711,1511903126004060029,/gps,1,12,40.268012,-111.634402167,1494.1,0.82774111111,1.0292206599,0.4761
1511903126204845909,712,1511903126203337907,/gps,1,12,40.2680123333,-111.634404,1494.2,0.632766666666,1.0292206599,0.4761
1511903126400890857,713,1511903126399347066,/gps,1,12,40.2680128333,-111.6344055,1494.3,0.596755555555,1.0292206599,0.4761
1511903126604667263,714,1511903126602773904,/gps,1,12,40.2680125,-111.634406833,1494.5,0.174911111111,1.0292206599,0.4761
1511903126804937992,715,1511903126803231954,/gps,1,12,40.2680131667,-111.634406833,1494.4,0.494381111111,1.0292206599,0.4761
1511903127005612576,716,1511903127003577947,/gps,1,12,40.268014,-111.634406833,1494.3,0.399208888889,1.0292206599,0.4761
1511903127205074919,717,1511903127202939033,/gps,1,12,40.268014,-111.634406833,1494.2,0.117807777778,1.0292206599,0.4761
1511903127404677836,718,1511903127403283119,/gps,1,12,40.2680135,-111.634407167,1494.2,0.188286666667,1.0292206599,0.4761
1511903127604911013,719,1511903127603091955,/gps,1,12,40.2680131667,-111.6344075,1494.2,0.152275555555,1.0292206599,0.4761
