%time,field.header.seq,field.header.stamp,field.header.frame_id,field.fix,field.NumSat,field.latitude,field.longitude,field.altitude,field.speed,field.ground_course,field.covariance
1511903708310583239,3043,1511903708309300899,/gps,1,7,40.2678858333,-111.634426833,1497.3,0.0380688888889,6.00497982441,3.4225
1511903708511635635,3044,1511903708510618925,/gps,1,7,40.2678861667,-111.634426,1496.9,0.13427,6.00497982441,3.4225
1511903708714791781,3045,1511903708713685989,/gps,1,7,40.2678865,-111.634425667,1496.6,0.224812222222,6.00497982441,3.4225
1511903708912952875,3046,1511903708910830020,/gps,1,7,40.2678861667,-111.634425667,1496.6,0.073051111111,6.00497982441,3.4225
1511903709112194541,3047,1511903709111222982,/gps,1,7,40.2678851667,-111.6344255,1496.8,0.121923333333,6.00497982441,3.4225
1511903709311560426,3048,1511903709310507059,/gps,1,7,40.2678855,-111.634424667,1496.6,0.25928,6.00497982441,3.4225
1511903709511927249,3049,1511903709510567903,/gps,1,7,40.267885,-111.6344245,1496.7,0.0699644444444,6.00497982441,3.4225
1511903709711974020,3050,1511903709710762023,/gps,1,7,40.2678838333,-111.634424,1496.9,0.294776666666,6.00497982441,3.4225
1511903709911339541,3051,1511903709910145998,/gps,1,7,40.2678836667,-111.634423667,1496.8,0.103403333333,6.00497982441,3.4225
1511903710109589853,3052,1511903710108603954,/gps,1,7,40.2678846667,-111.6344235,1496.5,0.325128888889,6.00497982441,3.4225
1511903710311344489,3053,1511903710310404062,/gps,1,7,40.2678855,-111.6344235,1496.0,0.330273333333,6.00497982441,3.4225
1511903710512409436,3054,1511903710511079072,/gps,1,7,40.2678855,-111.6344235,1495.9,0.0653344444444,6.00497982441,3.4225
1511903710716643343,3055,1511903710715503931,/gps,1,7,40.2678855,-111.634423667,1495.7,0.206806666666,6.00497982441,3.4225
1511903710912665738,3056,1511903710911606073,/gps,1,7,40.2678853333,-111.634424333,1495.6,0.462485555555,6.00497982441,3.4225
1511903711111795738,3057,1511903711110760927,/gps,1,7,40.2678851667,-111.634425,1495.4,0.511357777777,6.00497982441,3.4225
1511903711313117301,3058,1511903711312391042,/gps,1,7,40.2678855,-111.6344255,1495.2,0.227384444444,6.00497982441,3.4225
1511903711510531467,3059,1511903711509536027,/gps,1,7,40.2678858333,-111.634425833,1495.2,0.246418888889,6.00497982441,3.4225
1511903711712147196,3060,1511903711711031913,/gps,1,7,40.267885,-111.634426667,1495.4,0.209893333333,6.00497982441,3.4225
1511903711912917300,3061,1511903711911781072,/gps,1,7,40.2678843333,-111.634428,1495.6,0.297348888889,6.00497982441,3.4225
1511903712112346936,3062,1511903712111527919,/gps,1,7,40.2678838333,-111.634429333,1495.7,0.26391,6.00497982441,3.4225
1511903712312394488,3063,1511903712311429977,/gps,1,7,40.2678833333,-111.634430333,1495.7,0.0941433333333,6.00497982441,3.4225
1511903712511817613,3064,1511903712510756015,/gps,1,7,40.267884,-111.634430333,1495.4,0.346735555555,6.00497982441,3.4225
1511903712717616311,3065,1511903712716526031,/gps,1,7,40.267884,-111.634430333,1495.2,0.221725555555,6.00497982441,3.4225
1511903712910454852,3066,1511903712908942937,/gps,1,7,40.2678828333,-111.634431,1495.5,0.193945555555,6.00497982441,3.4225
1511903713111248758,3067,1511903713110029935,/gps,1,7,40.2678826667,-111.634431,1495.5,0.18057,6.00497982441,3.4225
1511903713311543810,3068,1511903713310189962,/gps,1,7,40.2678826667,-111.634430667,1495.4,0.18983,6.00497982441,3.4225
1511903713511796623,3069,1511903713510644912,/gps,1,7,40.267882,-111.634431,1495.5,0.218124444444,6.00497982441,3.4225
1511903713711278654,3070,1511903713710122108,/gps,1,7,40.2678815,-111.634431333,1495.6,0.0622477777777,6.00497982441,3.4225
1511903713913257404,3071,1511903713911869049,/gps,1,7,40.2678813333,-111.634432,1495.6,0.119351111111,6.00497982441,3.4225
1511903714113476362,3072,1511903714111543893,/gps,1,7,40.2678808333,-111.634433167,1495.8,0.29632,6.00497982441,3.4225
1511903714310767977,3073,1511903714309043884,/gps,1,7,40.2678803333,-111.634434,1495.8,0.108033333333,6.00497982441,3.4225
1511903714514226258,3074,1511903714512551069,/gps,1,7,40.2678811667,-111.634434333,1495.6,0.637911111111,6.00497982441,3.4225
1511903714720595997,3075,1511903714718852996,/gps,1,7,40.2678816667,-111.634435833,1495.8,0.738227777777,6.00497982441,3.4225
1511903714914769174,3076,1511903714912925004,/gps,1,7,40.2678821667,-111.634436833,1495.7,0.482034444444,6.00497982441,3.4225
1511903715115760424,3077,1511903715113840103,/gps,1,7,40.2678825,-111.634438,1496.0,1.19299666667,6.2549109733,3.4225
1511903715314935060,3078,1511903715312839984,/gps,1,7,40.2678841667,-111.634437333,1495.8,0.515987777777,6.2549109733,3.4225
1511903715515406622,3079,1511903715513838052,/gps,1,7,40.267886,-111.634437,1495.6,0.36577,6.2549109733,3.4225
1511903715711813184,3080,1511903715710750102,/gps,1,7,40.2678863333,-111.634437667,1495.7,0.110091111111,6.2549109733,3.4225
1511903715914305580,3081,1511903715913568973,/gps,1,7,40.2678861667,-111.634438167,1495.8,0.260823333333,6.2549109733,3.4225
1511903716113029486,3082,1511903716111973047,/gps,1,7,40.267887,-111.6344375,1495.6,0.616304444444,6.2549109733,3.4225
1511903716313024799,3083,1511903716311939954,/gps,1,7,40.2678881667,-111.634437167,1495.5,0.386862222222,6.2549109733,3.4225
1511903716511844122,3084,1511903716511049985,/gps,1,7,40.2678885,-111.634438333,1495.7,0.0591611111111,6.2549109733,3.4225
1511903716717800319,3085,1511903716716789960,/gps,1,7,40.2678886667,-111.634439,1495.7,0.205263333333,6.2549109733,3.4225
1511903716912316101,3086,1511903716911257982,/gps,1,7,40.2678886667,-111.63444,1495.8,0.0432133333333,6.2549109733,3.4225
1511903717110961569,3087,1511903717109503984,/gps,1,7,40.2678885,-111.634440833,1495.9,0.0668777777777,6.2549109733,3.4225
1511903717312126257,3088,1511903717310940980,/gps,1,7,40.2678886667,-111.6344415,1496.0,0.420815555555,6.2549109733,3.4225
1511903717511334069,3089,1511903717510481119,/gps,1,7,40.2678891667,-111.634441667,1496.0,0.530906666666,6.2549109733,3.4225
1511903717713646257,3090,1511903717711407899,/gps,1,7,40.26789,-111.634441167,1496.0,0.854492222221,6.2549109733,3.4225
1511903717912880579,3091,1511903717911891937,/gps,1,7,40.2678915,-111.634439833,1496.0,1.05666888889,6.2549109733,3.4225
1511903718112594017,3092,1511903718111525058,/gps,1,7,40.2678923333,-111.6344395,1496.1,0.387891111111,6.2549109733,3.4225
1511903718312610163,3093,1511903718311790943,/gps,1,7,40.2678928333,-111.634439167,1496.2,0.374001111111,6.2549109733,3.4225
1511903718513240996,3094,1511903718511883974,/gps,1,7,40.267893,-111.634439167,1496.3,0.17594,6.2549109733,3.4225
1511903718718704590,3095,1511903718717804908,/gps,1,7,40.2678926667,-111.6344395,1496.5,0.221725555555,6.2549109733,3.4225
1511903718913433444,3096,1511903718911793947,/gps,1,7,40.2678926667,-111.6344395,1496.5,0.12501,6.2549109733,3.4225
1511903719112964954,3097,1511903719111502885,/gps,1,7,40.2678923333,-111.634439833,1496.6,0.0236644444444,6.2549109733,3.4225
1511903719313208964,3098,1511903719311718940,/gps,1,7,40.2678926667,-111.634440333,1496.7,0.297348888889,6.2549109733,3.4225
1511903719515039537,3099,1511903719513597011,/gps,1,7,40.2678928333,-111.634441167,1496.7,0.24539,6.2549109733,3.4225
1511903719714580058,3100,1511903719712929010,/gps,1,7,40.2678931667,-111.634442,1496.7,0.138385555555,6.2549109733,3.4225
1511903719913042506,3101,1511903719911525964,/gps,1,7,40.267893,-111.634442333,1496.6,0.354452222222,6.2549109733,3.4225
1511903720113657037,3102,1511903720112027883,/gps,1,7,40.2678941667,-111.634441333,1496.4,1.03866333333,6.2549109733,3.4225
1511903720312117453,3103,1511903720310627937,/gps,1,7,40.267895,-111.634440833,1496.4,0.291175555555,6.2549109733,3.4225
1511903720512349901,3104,1511903720510900974,/gps,1,7,40.267895,-111.634441167,1496.5,0.0236644444444,6.2549109733,3.4225
1511903720717508495,3105,1511903720715934991,/gps,1,7,40.2678945,-111.634441667,1496.7,0.164107777778,6.2549109733,3.4225
1511903720912613495,3106,1511903720911323070,/gps,1,7,40.2678953333,-111.634441667,1496.6,0.514444444444,6.2549109733,3.4225
1511903721110580214,3107,1511903721109129905,/gps,1,7,40.2678955,-111.634442167,1496.7,0.31947,6.2549109733,3.4225
1511903721312094797,3108,1511903721310487985,/gps,1,7,40.267896,-111.634442,1496.7,0.378116666666,6.2549109733,3.4225
1511903721513180943,3109,1511903721510725975,/gps,1,7,40.2678966667,-111.634441833,1496.6,0.248476666666,6.2549109733,3.4225
1511903721712793963,3110,1511903721711004972,/gps,1,7,40.2678961667,-111.634441667,1496.6,0.471745555555,6.2549109733,3.4225
1511903721912668755,3111,1511903721910947084,/gps,1,7,40.2678956667,-111.634441,1496.6,0.390977777777,6.2549109733,3.4225
1511903722113208703,3112,1511903722111185073,/gps,1,7,40.267896,-111.634441167,1496.8,0.471745555555,6.2549109733,3.4225
1511903722312278182,3113,1511903722310519933,/gps,1,7,40.2678965,-111.634441333,1497.0,0.118322222222,6.2549109733,3.4225
1511903722509845369,3114,1511903722508543968,/gps,1,7,40.2678965,-111.634441667,1497.1,0.0267511111111,6.2549109733,3.4225
1511903722717313182,3115,1511903722715594053,/gps,1,7,40.2678966667,-111.6344425,1497.3,0.366284444444,6.2549109733,3.4225
1511903722911985109,3116,1511903722910695075,/gps,1,7,40.2678973333,-111.634443,1497.4,0.535536666666,6.2549109733,3.4225
1511903723113318598,3117,1511903723111033916,/gps,1,7,40.267896,-111.634444,1497.7,0.591096666666,6.2549109733,3.4225
1511903723312293182,3118,1511903723311059951,/gps,1,7,40.2678971667,-111.634441667,1497.5,0.770637777777,6.2549109733,3.4225
1511903723511695838,3119,1511903723510433912,/gps,1,7,40.2678961667,-111.634441667,1497.8,0.364741111111,6.2549109733,3.4225
1511903723710818963,3120,1511903723710005998,/gps,1,7,40.2678958333,-111.634441167,1497.7,0.17131,6.2549109733,3.4225
1511903723910962973,3121,1511903723908996105,/gps,1,7,40.267896,-111.634440667,1497.6,0.352394444444,6.2549109733,3.4225
1511903724111200525,3122,1511903724110065937,/gps,1,7,40.2678961667,-111.634440833,1497.5,0.225326666666,6.2549109733,3.4225
1511903724311200369,3123,1511903724310440063,/gps,1,7,40.2678961667,-111.634440667,1497.4,0.05556,6.2549109733,3.4225
1511903724511452296,3124,1511903724510688066,/gps,1,7,40.2678963333,-111.63444,1497.2,0.182113333333,6.2549109733,3.4225
1511903724711861462,3125,1511903724711102962,/gps,1,7,40.2678955,-111.634440667,1497.3,0.193431111111,6.2549109733,3.4225
1511903724913148129,3126,1511903724912141084,/gps,1,7,40.2678958333,-111.634440167,1497.1,0.0447566666666,6.2549109733,3.4225
1511903725113361670,3127,1511903725112277984,/gps,1,7,40.2678956667,-111.634440833,1497.2,0.288088888889,6.2549109733,3.4225
1511903725311120733,3128,1511903725309942007,/gps,1,7,40.2678943333,-111.634442333,1497.4,0.386862222222,6.2549109733,3.4225
1511903725512773389,3129,1511903725511761903,/gps,1,7,40.267894,-111.634442667,1497.5,0.137356666667,6.2549109733,3.4225
1511903725712335993,3130,1511903725711299896,/gps,1,7,40.2678938333,-111.634443167,1497.5,0.091571111111,6.2549109733,3.4225
1511903725913009222,3131,1511903725912041902,/gps,1,7,40.267893,-111.6344445,1497.7,0.18057,6.2549109733,3.4225
1511903726113052608,3132,1511903726112107992,/gps,1,7,40.2678921667,-111.634445667,1497.9,0.0468144444444,6.2549109733,3.4225
1511903726312448597,3133,1511903726311618089,/gps,1,7,40.2678913333,-111.634446667,1498.0,0.077681111111,6.2549109733,3.4225
1511903726514075524,3134,1511903726513066053,/gps,1,7,40.2678886667,-111.634447,1498.3,1.80261333333,1.65317586749,3.4225
1511903726710172086,3135,1511903726709172010,/gps,1,7,40.2678856667,-111.634447833,1498.7,0.429046666666,1.65317586749,3.4225
1511903726913317920,3136,1511903726912434101,/gps,1,7,40.267885,-111.634446833,1498.7,0.757776666666,1.65317586749,3.4225
1511903727112080420,3137,1511903727111213922,/gps,1,7,40.2678851667,-111.634445667,1498.8,0.300435555555,1.65317586749,3.4225
1511903727311885992,3138,1511903727310971021,/gps,1,7,40.2678865,-111.634444167,1498.5,0.47689,1.65317586749,3.4225
1511903727512111305,3139,1511903727511181116,/gps,1,7,40.2678898333,-111.634442667,1498.0,1.33446888889,1.65317586749,3.4225
1511903727714161982,3140,1511903727713148117,/gps,1,7,40.2678915,-111.6344435,1498.0,0.838544444444,1.65317586749,3.4225
1511903727912816513,3141,1511903727911762952,/gps,1,7,40.2678926667,-111.634443833,1498.0,0.611674444444,1.65317586749,3.4225
1511903728111873544,3142,1511903728110570907,/gps,1,7,40.2678926667,-111.634444333,1498.2,0.330787777777,1.65317586749,3.4225
1511903728312917711,3143,1511903728311820983,/gps,1,7,40.2678931667,-111.634443833,1498.1,0.105461111111,1.65317586749,3.4225
1511903728512529534,3144,1511903728511549949,/gps,1,7,40.2678935,-111.634443833,1498.1,0.301464444444,1.65317586749,3.4225
1511903728712589690,3145,1511903728711533069,/gps,1,7,40.267894,-111.6344435,1498.0,0.05093,1.65317586749,3.4225
1511903728915616929,3146,1511903728913666963,/gps,1,7,40.2678948333,-111.634442667,1497.8,0.17594,1.65317586749,3.4225
1511903729113423856,3147,1511903729112401008,/gps,1,7,40.2678953333,-111.634442333,1497.7,0.128611111111,1.65317586749,3.4225
1511903729312995523,3148,1511903729312094926,/gps,1,7,40.2678955,-111.634441833,1497.7,0.0699644444444,1.65317586749,3.4225
1511903729511609481,3149,1511903729510548114,/gps,1,7,40.2678958333,-111.634441167,1497.6,0.109062222222,1.65317586749,3.4225
1511903729713972398,3150,1511903729713059902,/gps,1,7,40.267896,-111.634441,1497.6,0.0298377777778,1.65317586749,3.4225
1511903729912972033,3151,1511903729912139892,/gps,1,7,40.267897,-111.634439,1497.3,0.559715555555,1.65317586749,3.4225
1511903730112979898,3152,1511903730112142086,/gps,1,7,40.2678988333,-111.634435833,1496.9,0.905422222221,1.65317586749,3.4225
1511903730312978179,3153,1511903730312123060,/gps,1,7,40.2678998333,-111.634433667,1496.7,0.46763,1.65317586749,3.4225
1511903730512934689,3154,1511903730512080907,/gps,1,7,40.2678998333,-111.634433667,1496.8,0.121923333333,1.65317586749,3.4225
1511903730712471512,3155,1511903730711549043,/gps,1,7,40.2679,-111.634433333,1496.8,0.440364444444,1.65317586749,3.4225
1511903730911118543,3156,1511903730910132884,/gps,1,7,40.2679006667,-111.634433,1496.9,0.528848888888,1.65317586749,3.4225
1511903731112515054,3157,1511903731111646890,/gps,1,7,40.2679016667,-111.6344325,1496.9,0.55097,1.65317586749,3.4225
1511903731313130314,3158,1511903731312303066,/gps,1,7,40.2679028333,-111.6344315,1496.9,0.834943333333,1.65317586749,3.4225
1511903731512196564,3159,1511903731511346101,/gps,1,7,40.2679033333,-111.634431,1497.0,0.615275555555,1.65317586749,3.4225
1511903731712319689,3160,1511903731711436986,/gps,1,7,40.2679031667,-111.634430833,1497.1,0.442422222222,1.65317586749,3.4225
1511903731913059532,3161,1511903731912205934,/gps,1,7,40.2679023333,-111.634431,1497.2,0.23613,1.65317586749,3.4225
1511903732112951668,3162,1511903732112106084,/gps,1,7,40.267902,-111.634430833,1497.3,0.326672222222,1.65317586749,3.4225
1511903732312482761,3163,1511903732311592102,/gps,1,7,40.2679018333,-111.634431333,1497.4,0.167194444444,1.65317586749,3.4225
1511903732512179428,3164,1511903732511254072,/gps,1,7,40.2679016667,-111.634432,1497.5,0.0586466666666,1.65317586749,3.4225
1511903732713226511,3165,1511903732712366104,/gps,1,7,40.2679013333,-111.634432833,1497.5,0.0354966666666,1.65317586749,3.4225
1511903732913548126,3166,1511903732912626028,/gps,1,7,40.2679011667,-111.634432833,1497.4,0.103917777778,1.65317586749,3.4225
1511903733113847084,3167,1511903733112941980,/gps,1,7,40.2679015,-111.634432667,1497.3,0.238702222222,1.65317586749,3.4225
1511903733312794428,3168,1511903733311949014,/gps,1,7,40.2679018333,-111.634432333,1497.2,0.406925555555,1.65317586749,3.4225
1511903733512179792,3169,1511903733511317968,/gps,1,7,40.2679021667,-111.6344325,1497.4,0.343648888889,1.65317586749,3.4225
1511903733712594636,3170,1511903733711739063,/gps,1,7,40.2679025,-111.634432667,1497.4,0.338504444444,1.65317586749,3.4225
1511903733917480157,3171,1511903733916023969,/gps,1,7,40.2679031667,-111.634433167,1497.3,0.536565555555,1.65317586749,3.4225
1511903734113011407,3172,1511903734111480951,/gps,1,7,40.2679036667,-111.634434333,1497.1,1.07621777778,1.65317586749,3.4225
1511903734312680677,3173,1511903734311178922,/gps,1,7,40.267903,-111.634437167,1497.1,1.48777333333,1.65317586749,3.4225
1511903734512359948,3174,1511903734510852098,/gps,1,7,40.2679021667,-111.63444,1497.0,1.55362222222,1.65317586749,3.4225
1511903734712987396,3175,1511903734711438894,/gps,1,7,40.2679021667,-111.634444167,1497.1,2.02073777778,0.704763951955,3.4225
1511903734909684010,3176,1511903734908164024,/gps,1,6,40.2679013333,-111.634447667,1497.6,1.27427888889,0.704763951955,5.1076
1511903735113457552,3177,1511903735111968994,/gps,1,6,40.2678956667,-111.634447333,1497.4,4.86201444444,2.79427213244,5.1076
1511903735313008698,3178,1511903735311534881,/gps,1,6,40.267888,-111.63446,1497.5,9.60107666666,4.17535116955,5.1076
1511903735512780364,3179,1511903735511281967,/gps,1,6,40.2678803333,-111.634481333,1497.9,10.2518488889,4.31131231828,5.1076
1511903735713324271,3180,1511903735711842060,/gps,1,6,40.267872,-111.634503167,1498.1,9.98793888888,4.25511271636,5.1076
1511903735917244375,3181,1511903735915414094,/gps,1,6,40.2678626667,-111.634524333,1497.9,10.40361,4.19280446207,5.1076
1511903736116423281,3182,1511903736114876031,/gps,1,6,40.2678523333,-111.634545667,1497.4,10.9998511111,4.12875087852,5.1076
1511903736313830833,3183,1511903736312323093,/gps,1,6,40.2678401667,-111.634567667,1497.0,11.6773744444,4.05579611578,5.1076
1511903736517876614,3184,1511903736516355991,/gps,1,6,40.2678248333,-111.6345895,1497.2,11.7519688889,3.93781185835,5.1076
1511903736720955624,3185,1511903736719335079,/gps,1,7,40.2678076667,-111.634608,1497.0,13.1548588889,3.75769387954,3.4225
1511903736914101353,3186,1511903736913297891,/gps,1,7,40.2677893333,-111.634624,1497.4,11.5446477778,3.69905081668,3.4225
1511903737114012760,3187,1511903737113179922,/gps,1,7,40.2677706667,-111.634638333,1498.2,11.2087155555,3.62958671245,3.4225
1511903737314221614,3188,1511903737313347101,/gps,1,7,40.2677536667,-111.634651333,1498.6,11.3398988889,3.70585760076,3.4225
1511903737514362759,3189,1511903737513535022,/gps,1,7,40.2677365,-111.634666333,1498.8,12.0210233333,3.73535366512,3.4225
1511903737711912082,3190,1511903737711055040,/gps,1,7,40.2677196667,-111.634682667,1498.9,11.4062622222,3.79521845846,3.4225
1511903737913164009,3191,1511903737912302017,/gps,1,7,40.267705,-111.634700167,1498.6,11.8929266667,3.8980183514,3.4225
1511903738113206197,3192,1511903738112373113,/gps,1,7,40.2676911667,-111.634720667,1498.3,11.78335,4.00849769306,3.4225
1511903738313081040,3193,1511903738312251091,/gps,1,7,40.2676793333,-111.634744333,1498.0,12.1949055555,4.19402619254,3.4225
1511903738513848488,3194,1511903738512913942,/gps,1,7,40.2676726667,-111.634771333,1497.7,12.3276322222,4.53611072593,3.4225
1511903738718600311,3195,1511903738717706918,/gps,1,7,40.2676728333,-111.634800167,1497.7,11.9649488889,4.86388355946,3.4225
1511903738917676613,3196,1511903738915416955,/gps,1,7,40.2676788333,-111.634827,1497.7,11.6315888889,5.08798383541,3.4225
1511903739113118071,3197,1511903739112077951,/gps,1,7,40.2676876667,-111.634851167,1497.9,10.8913033333,5.23720948646,3.4225
1511903739314127498,3198,1511903739313143014,/gps,1,7,40.2676985,-111.634872333,1498.3,10.3279866667,5.35885893532,3.4225
1511903739514248592,3199,1511903739513056039,/gps,1,7,40.2677103333,-111.634891333,1498.5,10.32953,5.3787556888,3.4225
1511903739714362082,3200,1511903739713052034,/gps,1,7,40.2677221667,-111.634910333,1499.0,10.3830322222,5.4058082922,3.4225
1511903739914125311,3201,1511903739912875890,/gps,1,7,40.2677338333,-111.634928833,1499.4,9.89533888888,5.41767653112,3.4225
1511903740115005571,3202,1511903740114002943,/gps,1,7,40.2677455,-111.634947,1499.8,10.0861977778,5.4058082922,3.4225
1511903740314792238,3203,1511903740313869953,/gps,1,7,40.267757,-111.634965333,1500.0,10.01469,5.39359098744,3.4225
1511903740512789842,3204,1511903740511910915,/gps,1,7,40.26777,-111.634984167,1500.0,11.03792,5.40196856785,3.4225
1511903740721360571,3205,1511903740720138072,/gps,1,7,40.2677813333,-111.635006167,1500.4,11.1901955555,5.28398431041,3.4225
1511903740914642914,3206,1511903740913321018,/gps,1,7,40.2677915,-111.635028333,1500.5,11.1320633333,5.17525029801,3.4225
1511903741114888904,3207,1511903741113862037,/gps,1,7,40.2677991667,-111.6350525,1500.9,11.0914222222,5.05552071133,3.4225
1511903741314826091,3208,1511903741313797950,/gps,1,7,40.2678055,-111.6350765,1500.8,11.0281455555,4.92898434056,3.4225
1511903741515435518,3209,1511903741514317035,/gps,1,7,40.2678076667,-111.635101167,1500.8,11.0873066667,4.7664941872,3.4225
1511903741715336352,3210,1511903741714462041,/gps,1,7,40.2678086667,-111.635127,1500.7,11.2611888889,4.69353942446,3.4225
1511903741913632029,3211,1511903741912693023,/gps,1,7,40.267807,-111.635154,1500.8,11.67686,4.61220708132,3.4225
1511903742114204893,3212,1511903742113276004,/gps,1,7,40.267804,-111.635182,1500.8,11.9932433333,4.55845094036,3.4225
1511903742315334945,3213,1511903742314404010,/gps,1,7,40.2678008333,-111.635210833,1500.7,12.0832711111,4.59073953152,3.4225
1511903742514650205,3214,1511903742513662099,/gps,1,7,40.2677981667,-111.635239333,1500.3,12.38525,4.53890325274,3.4225
1511903742721641039,3215,1511903742720798015,/gps,1,7,40.2677951667,-111.635267833,1499.6,12.8950644444,4.52651141505,3.4225
1511903742914910778,3216,1511903742913922071,/gps,1,7,40.2677915,-111.635298333,1499.7,13.0566,4.55408761723,3.4225
1511903743115280101,3217,1511903743113670110,/gps,1,7,40.2677873333,-111.635327167,1500.0,12.3173433333,4.47066087898,3.4225
1511903743313049111,3218,1511903743312285900,/gps,1,7,40.267782,-111.6353525,1500.5,11.07496,4.37920562618,3.4225
1511903743515553330,3219,1511903743514539957,/gps,1,7,40.2677761667,-111.6353745,1501.5,9.17614555555,4.37187524332,3.4225
1511903743715794840,3220,1511903743714463949,/gps,1,7,40.2677713333,-111.635393333,1502.0,9.55220444444,4.30677446222,3.4225
1511903743916305101,3221,1511903743914165973,/gps,1,7,40.2677656667,-111.635413167,1502.9,8.44769222221,4.39962597843,3.4225
1511903744115616871,3222,1511903744114236116,/gps,1,7,40.267761,-111.635431833,1503.5,8.3746411111,4.42929657571,3.4225
1511903744317051038,3223,1511903744315263986,/gps,1,7,40.2677573333,-111.635451,1503.9,8.70131333333,4.47607139966,3.4225
1511903744515030205,3224,1511903744514075040,/gps,1,7,40.2677555,-111.635469833,1503.8,8.15908888888,4.60330590214,3.4225
1511903744721273278,3225,1511903744720118999,/gps,1,7,40.2677545,-111.6354895,1503.8,8.41939777777,4.67503893439,3.4225
1511903744915834944,3226,1511903744914740085,/gps,1,7,40.2677556667,-111.635509333,1503.6,8.39367555555,4.8593457034,3.4225
1511903745115071819,3227,1511903745114128112,/gps,1,7,40.26776,-111.6355285,1503.1,8.83866999999,4.99007086438,3.4225
1511903745314400725,3228,1511903745313312053,/gps,1,7,40.267767,-111.635547667,1502.8,8.95133333333,5.23720948646,3.4225
1511903745514607288,3229,1511903745513685941,/gps,1,7,40.267777,-111.635564833,1502.6,9.00792222221,5.41575666894,3.4225
1511903745715492444,3230,1511903745713787078,/gps,1,7,40.267789,-111.635579833,1502.6,9.00740777777,5.62083285605,3.4225
1511903745914522756,3231,1511903745913719892,/gps,1,7,40.2678023333,-111.635591667,1502.8,8.6617011111,5.76080826206,3.4225
1511903746114662392,3232,1511903746113784074,/gps,1,7,40.267816,-111.6356005,1503.1,7.91729999999,5.88891542915,3.4225
1511903746314628589,3233,1511903746313751935,/gps,1,7,40.2678293333,-111.635606667,1503.5,7.8051511111,6.05140558251,3.4225
1511903746515074423,3234,1511903746514194011,/gps,1,7,40.2678428333,-111.635609667,1504.0,7.15129222222,6.11511010021,3.4225
1511903746722360725,3235,1511903746721292018,/gps,1,7,40.2678556667,-111.63561,1504.3,6.41820888888,6.20167843111,3.4225
1511903746915101350,3236,1511903746913873910,/gps,1,7,40.2678676667,-111.635608167,1504.7,6.27570777777,0.0455530934771,3.4225
1511903747114209527,3237,1511903747112999916,/gps,1,7,40.2678786667,-111.635604667,1505.3,6.26799111111,0.16615534479,3.4225
1511903747314802391,3238,1511903747314060926,/gps,1,7,40.2678885,-111.635599167,1505.7,5.83122777777,0.294786110662,3.4225
1511903747513827495,3239,1511903747512998104,/gps,1,7,40.267897,-111.635592,1505.9,4.91654555555,0.399156799931,3.4225
1511903747714217235,3240,1511903747713407993,/gps,1,7,40.267904,-111.635584333,1506.1,4.98188,0.540877535193,3.4225
1511903747914376453,3241,1511903747913351058,/gps,1,7,40.2679101667,-111.635575667,1506.1,4.69121888888,0.678584013175,3.4225
1511903748115161453,3242,1511903748114315986,/gps,1,7,40.2679146667,-111.635567167,1506.3,4.76632777777,0.808261976599,3.4225
1511903748313808537,3243,1511903748312936067,/gps,1,7,40.2679195,-111.6355575,1506.2,5.10843333333,0.893084978245,3.4225
1511903748514073536,3244,1511903748512984037,/gps,1,7,40.2679256667,-111.635545833,1505.8,5.83791555555,0.962200016624,3.4225
1511903748718898745,3245,1511903748717901945,/gps,1,7,40.2679306667,-111.635534667,1505.6,5.49838222222,1.01892321731,3.4225
1511903748916022026,3246,1511903748914303064,/gps,1,7,40.2679356667,-111.635522,1505.3,6.28188111111,1.10933127257,3.4225
1511903749115021245,3247,1511903749114177942,/gps,1,7,40.26794,-111.635507167,1504.8,7.06795222222,1.21038583626,3.4225
1511903749314609213,3248,1511903749313648939,/gps,1,7,40.267943,-111.635490167,1504.3,7.6708811111,1.39015474921,3.4225
1511903749513511140,3249,1511903749512715101,/gps,1,7,40.2679445,-111.635471,1503.9,8.87262333333,1.50744087495,3.4225
1511903749715256088,3250,1511903749714374065,/gps,1,7,40.2679455,-111.635449333,1503.3,9.36957666666,1.5999433253,3.4225
1511903749913978953,3251,1511903749913140058,/gps,1,7,40.2679421667,-111.635427667,1503.2,10.0522444444,1.8374826365,3.4225
1511903750112890932,3252,1511903750112077951,/gps,1,7,40.2679353333,-111.635405833,1503.0,10.4792333333,2.02946885422,3.4225
1511903750314551036,3253,1511903750313771963,/gps,1,7,40.2679248333,-111.6353845,1502.7,11.17219,2.28673038596,3.4225
1511903750514491869,3254,1511903750513741970,/gps,1,7,40.2679095,-111.635368667,1502.7,10.8902744444,2.57348798207,3.4225
1511903750722720619,3255,1511903750721858024,/gps,1,7,40.267892,-111.6353575,1502.2,11.1984266667,2.79584292877,3.4225
1511903750914536036,3256,1511903750913570880,/gps,1,7,40.267872,-111.635352,1502.4,10.8187666667,2.90998746185,3.4225
1511903751114298483,3257,1511903751113168001,/gps,1,7,40.2678513333,-111.635351,1502.0,11.9474577778,3.19465066285,3.4225
1511903751314644681,3258,1511903751313630104,/gps,1,7,40.2678295,-111.635356333,1501.5,12.51952,3.40094858044,3.4225
1511903751511950671,3259,1511903751511166095,/gps,1,7,40.2678083333,-111.6353685,1501.2,12.7258122222,3.63237923925,3.4225
1511903751715107337,3260,1511903751713840961,/gps,1,7,40.2677865,-111.635387333,1502.1,12.6949455555,3.74774550281,3.4225
1511903751914840671,3261,1511903751913930892,/gps,1,7,40.2677723333,-111.635407,1502.4,11.4520477778,4.06958421688,3.4225
1511903752115374733,3262,1511903752114451885,/gps,1,7,40.2677613333,-111.6354285,1503.1,11.3172633333,4.07639100096,3.4225
1511903752314828327,3263,1511903752313988924,/gps,1,7,40.2677523333,-111.635448167,1504.3,8.17503666666,4.20153110833,3.4225
1511903752514929420,3264,1511903752514174938,/gps,1,7,40.2677485,-111.6354635,1505.6,5.86312333333,4.46978821436,3.4225
1511903752723270202,3265,1511903752722213983,/gps,1,7,40.2677451667,-111.635477333,1507.0,5.49272333333,4.4451790719,3.4225
1511903752915061504,3266,1511903752913814067,/gps,1,7,40.2677451667,-111.635488,1508.0,3.62940555555,4.54518643804,3.4225
1511903753115291868,3267,1511903753114232063,/gps,1,7,40.2677441667,-111.635498,1509.1,3.96019333333,4.5690974488,3.4225
1511903753315313222,3268,1511903753314393043,/gps,1,7,40.2677438333,-111.635507333,1509.7,3.67776333333,4.63733982255,3.4225
1511903753515768274,3269,1511903753514642000,/gps,1,7,40.2677431667,-111.6355175,1510.1,4.31773222222,4.66980294664,3.4225
1511903753714448378,3270,1511903753713414907,/gps,1,7,40.2677418333,-111.635529667,1510.7,4.60016222222,4.71553057304,3.4225
1511903753915619212,3271,1511903753913800954,/gps,1,7,40.2677428333,-111.635541667,1510.7,5.22315444444,4.86789781674,3.4225
1511903754114719003,3272,1511903754113722085,/gps,1,7,40.267746,-111.635553167,1510.2,5.24939111111,4.9694759792,3.4225
1511903754313339316,3273,1511903754312316894,/gps,1,7,40.2677503333,-111.635564333,1509.4,5.57657777777,4.99792484601,3.4225
1511903754515449472,3274,1511903754514326095,/gps,1,7,40.2677568333,-111.635575167,1508.5,5.83997333333,5.13493319229,3.4225
1511903754715427492,3275,1511903754714447975,/gps,1,6,40.2677646667,-111.635585833,1507.5,6.27776555555,5.22935550483,3.6864
1511903754915321555,3276,1511903754914253950,/gps,1,6,40.2677741667,-111.635596333,1506.4,6.79118111111,5.33075913437,3.6864
1511903755116333169,3277,1511903755115276098,/gps,1,6,40.2677856667,-111.635607667,1505.6,7.9672011111,5.52379254964,3.6864
1511903755315960826,3278,1511903755314785003,/gps,1,6,40.2677981667,-111.635623167,1505.1,10.4149277778,5.48347544392,3.6864
1511903755515833586,3279,1511903755515058040,/gps,1,6,40.267811,-111.635641833,1505.1,10.8269977778,5.49708901208,3.6864
1511903755714804159,3280,1511903755713923931,/gps,1,6,40.2678248333,-111.635659833,1505.1,10.7724666667,5.50459392786,3.6864
1511903755915245982,3281,1511903755914459943,/gps,1,6,40.2678383333,-111.6356775,1505.1,10.4056677778,5.46462588799,3.6864
1511903756115870304,3282,1511903756114649057,/gps,1,6,40.2678501667,-111.635696,1505.5,10.0203488889,5.38783140091,3.6864
1511903756317511606,3283,1511903756316467046,/gps,1,6,40.2678605,-111.635714833,1505.9,9.57226777777,5.30248480048,3.6864
1511903756516176658,3284,1511903756514978885,/gps,1,6,40.2678685,-111.6357345,1506.4,9.31144444444,5.18502414182,3.6864
1511903756717428377,3285,1511903756716331958,/gps,1,6,40.2678721667,-111.635758333,1507.6,9.72557222221,5.02009052751,3.6864
1511903756917637023,3286,1511903756916698932,/gps,1,6,40.2678753333,-111.635781333,1508.2,9.19980999999,4.90454973103,3.6864
1511903757115196398,3287,1511903757114310979,/gps,1,6,40.2678773333,-111.6358035,1508.2,9.62576999999,4.7678904506,3.6864
1511903757317412544,3288,1511903757316520929,/gps,1,6,40.267876,-111.635828167,1508.4,9.9349511111,4.64955712731,3.6864
1511903757518537543,3289,1511903757517709970,/gps,1,7,40.2678728333,-111.635853,1508.5,10.0928855555,4.56944651465,3.4225
1511903757717418637,3290,1511903757716543912,/gps,1,6,40.2678665,-111.635876167,1508.0,10.6191622222,4.29752421719,3.6864
1511903757917655304,3291,1511903757916656970,/gps,1,7,40.2678576667,-111.635896667,1506.9,10.4843777778,4.09576415566,3.4225
1511903758116213741,3292,1511903758115117073,/gps,1,6,40.267842,-111.635915833,1506.0,11.7401366667,3.79905818282,3.6864
1511903758317947804,3293,1511903758317136049,/gps,1,7,40.2678198333,-111.635931167,1504.8,13.8827977778,3.50060688073,3.4225
1511903758513197699,3294,1511903758512154102,/gps,1,7,40.2677943333,-111.635937833,1503.4,14.4049588889,3.17335764598,3.4225
1511903758714895356,3295,1511903758713793039,/gps,1,7,40.2677693333,-111.635932167,1501.9,14.7758733333,2.84261775272,3.4225
1511903758917561293,3296,1511903758915247917,/gps,1,7,40.2677441667,-111.6359165,1501.4,16.4112922222,2.50891079974,3.4225
1511903759114843012,3297,1511903759113996982,/gps,1,7,40.2677258333,-111.635889333,1501.1,15.66329,2.11464092172,3.4225
1511903759315209314,3298,1511903759314137935,/gps,1,7,40.2677153333,-111.635858667,1501.1,14.6426322222,1.84202049255,3.4225
1511903759514959470,3299,1511903759513833045,/gps,1,7,40.2677096667,-111.635827,1501.7,14.4456,1.682322866,3.4225
1511903759714236866,3300,1511903759713419914,/gps,1,7,40.2677071667,-111.6357975,1502.2,13.3801855555,1.55822995618,3.4225
1511903759914036345,3301,1511903759913142919,/gps,1,7,40.2677076667,-111.635766333,1502.2,13.8272377778,1.51302592855,3.4225
1511903760115589365,3302,1511903760114341020,/gps,1,7,40.2677086667,-111.635735,1502.2,13.6204311111,1.49784156406,3.4225
1511903760317205303,3303,1511903760315979957,/gps,1,7,40.2677111667,-111.635702667,1501.7,13.8740522222,1.47567588256,3.4225
1511903760516400667,3304,1511903760515094041,/gps,1,7,40.2677141667,-111.635670833,1501.0,13.39922,1.44984500963,3.4225
1511903760717736501,3305,1511903760716716051,/gps,1,7,40.2677166667,-111.635637167,1500.2,14.8278322222,1.53362081373,3.4225
1511903760915789469,3306,1511903760914524078,/gps,1,7,40.2677178333,-111.635602,1500.0,14.9065422222,1.55753182448,3.4225
1511903761115433740,3307,1511903761114533901,/gps,1,7,40.2677163333,-111.635570167,1501.1,13.6744477778,1.61477862395,3.4225
1511903761317106709,3308,1511903761316010951,/gps,1,7,40.2677153333,-111.635544167,1502.4,9.47709555555,1.68406819525,3.4225
1511903761518723688,3309,1511903761517638921,/gps,1,7,40.2677126667,-111.635523167,1504.2,9.06656888888,1.69122404518,3.4225
1511903761718554886,3310,1511903761717704057,/gps,1,7,40.2677105,-111.635503667,1505.7,8.18635444444,1.69890349389,3.4225
1511903761918398167,3311,1511903761917174100,/gps,1,7,40.2677101667,-111.635483167,1506.7,8.66478777777,1.61442955809,3.4225
1511903762120174573,3312,1511903762119357109,/gps,1,7,40.2677085,-111.635464,1507.5,7.70226222222,1.77674517853,3.4225
1511903762317664052,3313,1511903762316651105,/gps,1,7,40.2677051667,-111.6354455,1507.9,8.27638222222,1.86226631188,3.4225
1511903762515247385,3314,1511903762514345884,/gps,1,7,40.2677011667,-111.6354265,1508.0,8.04642555555,1.87849787392,3.4225
1511903762717360094,3315,1511903762716218948,/gps,1,7,40.2676963333,-111.635408333,1508.1,8.49913666666,1.85580859365,3.4225
1511903762918492646,3316,1511903762917076110,/gps,1,7,40.2676916667,-111.635389,1508.0,8.83146777777,1.86348804235,3.4225
1511903763119944885,3317,1511903763118710994,/gps,1,7,40.2676863333,-111.635368167,1507.6,9.66692555555,1.89560210059,3.4225
1511903763317955041,3318,1511903763316848993,/gps,1,7,40.2676803333,-111.635346167,1507.0,10.0692211111,1.948311044,3.4225
1511903763515685041,3319,1511903763514887094,/gps,1,7,40.2676723333,-111.635323833,1506.4,10.7359411111,2.00677957394,3.4225
1511903763717447072,3320,1511903763716409921,/gps,1,7,40.267664,-111.6353005,1505.7,11.4227244444,2.01899687871,3.4225
1511903763916597906,3321,1511903763914829015,/gps,1,7,40.2676556667,-111.635275167,1505.1,12.0493177778,1.97361831816,3.4225
1511903764123233739,3322,1511903764121876001,/gps,1,7,40.2676483333,-111.635248667,1504.6,12.4387522222,1.87308735324,3.4225
1511903764314828530,3323,1511903764313539981,/gps,1,7,40.267643,-111.635220167,1504.1,12.7721122222,1.76976386152,3.4225
1511903764514237437,3324,1511903764513258934,/gps,1,7,40.2676401667,-111.63519,1503.6,13.2803833333,1.66190251375,3.4225
1511903764714423947,3325,1511903764713355064,/gps,1,7,40.2676393333,-111.635159,1503.0,13.7053144444,1.54863064529,3.4225
1511903764915243947,3326,1511903764913919925,/gps,1,7,40.2676405,-111.635127333,1502.2,13.7238344444,1.50150675549,3.4225
1511903765113871968,3327,1511903765112838983,/gps,1,7,40.2676423333,-111.635094667,1501.2,14.1153266667,1.50395021644,3.4225
1511903765312910040,3328,1511903765311825037,/gps,1,7,40.2676408333,-111.635063,1501.0,15.2208677778,1.53292268203,3.4225
1511903765514003582,3329,1511903765512875080,/gps,1,7,40.2676426667,-111.635026167,1499.9,15.5398233333,1.52367243699,3.4225
1511903765713903165,3330,1511903765712949991,/gps,1,7,40.2676438333,-111.634990167,1499.7,15.6792377778,1.49749249821,3.4225
1511903765915050144,3331,1511903765913763046,/gps,1,7,40.2676448333,-111.634955833,1500.4,14.4095888889,1.49016211535,3.4225
1511903766116418790,3332,1511903766115396976,/gps,1,7,40.267646,-111.634924167,1501.7,13.31588,1.49836516284,3.4225
1511903766315929207,3333,1511903766314903974,/gps,1,7,40.2676456667,-111.634896833,1503.5,11.3285811111,1.56206968053,3.4225
1511903766516141759,3334,1511903766514863967,/gps,1,7,40.2676416667,-111.634875167,1505.7,9.2636011111,1.81130269772,3.4225
1511903766714105769,3335,1511903766713011980,/gps,1,7,40.267637,-111.634853333,1506.8,9.66795444444,1.97693444373,3.4225
1511903766917670404,3336,1511903766916749954,/gps,1,7,40.267628,-111.634836,1508.1,8.53926333333,2.26299390814,3.4225
1511903767116159727,3337,1511903767115381956,/gps,1,7,40.2676171667,-111.634822,1508.8,8.64420999999,2.42949831878,3.4225
1511903767317970196,3338,1511903767316824913,/gps,1,7,40.2676045,-111.63481,1508.9,9.57329666666,2.67419347991,3.4225
1511903767515655560,3339,1511903767514430046,/gps,1,6,40.2675896667,-111.634799667,1508.5,9.53779999999,2.76983752292,3.6864
1511903767714341498,3340,1511903767713246107,/gps,1,6,40.2675728333,-111.634793333,1508.1,9.91231555555,2.96060201016,3.6864
1511903767914647227,3341,1511903767913671970,/gps,1,6,40.2675546667,-111.6347905,1507.0,11.3419566667,3.175626574,3.6864
1511903768113511602,3342,1511903768112318992,/gps,1,6,40.267536,-111.634794167,1506.3,9.70705222221,3.35190482846,3.6864
1511903768315973216,3343,1511903768314826011,/gps,1,6,40.2675195,-111.634802167,1505.2,10.5579433333,3.61841660523,3.6864
1511903768515670039,3344,1511903768514839887,/gps,1,6,40.2675035,-111.634813833,1503.6,12.1769,3.70376320566,3.6864
1511903768714521862,3345,1511903768713771104,/gps,1,6,40.2674893333,-111.634828833,1501.9,12.3492388889,3.9125045842,3.6864
1511903768917119570,3346,1511903768915055990,/gps,1,6,40.2674775,-111.634852833,1501.1,12.5992588889,4.2650610931,3.6864
1511903769115593008,3347,1511903769114466905,/gps,1,6,40.2674723333,-111.6348835,1500.6,13.6137433333,4.61290521302,3.6864
1511903769315704570,3348,1511903769314421892,/gps,1,6,40.2674725,-111.634916833,1500.7,13.42237,4.83351483047,3.6864
1511903769512812851,3349,1511903769511878967,/gps,1,6,40.2674741667,-111.6349495,1501.1,13.03808,4.79791011373,3.6864
1511903769716076393,3350,1511903769715060949,/gps,1,6,40.267476,-111.634980833,1501.9,12.0091911111,4.85358611687,3.6864
1511903769915759101,3351,1511903769914836883,/gps,1,6,40.267478,-111.635009167,1503.0,10.7765822222,4.83700548898,3.6864
1511903770118730039,3352,1511903770117796897,/gps,1,6,40.2674791667,-111.635036,1504.2,10.3285011111,4.82967510612,3.6864
1511903770316162174,3353,1511903770315213918,/gps,1,6,40.2674806667,-111.635061667,1505.0,10.3393044444,4.83683095605,3.6864
1511903770515621080,3354,1511903770514678001,/gps,1,6,40.2674831667,-111.635086167,1505.4,10.3346744444,4.84328867428,3.6864
1511903770717142486,3355,1511903770716063976,/gps,1,6,40.2674858333,-111.635111167,1505.7,10.5049555555,4.85323705102,3.6864
1511903770914409882,3356,1511903770913391113,/gps,1,6,40.2674893333,-111.635136,1505.7,10.5805788889,4.9202576943,3.6864
1511903771116649257,3357,1511903771115468978,/gps,1,6,40.2674933333,-111.635161333,1505.6,10.8444888889,4.93020607103,3.6864
1511903771315034726,3358,1511903771313945055,/gps,1,6,40.2674983333,-111.635186667,1505.3,11.1727044444,4.97122130846,3.6864
1511903771515658580,3359,1511903771514633893,/gps,1,6,40.2675036667,-111.635213,1504.9,11.48703,4.98291501444,3.6864
1511903771715270194,3360,1511903771714248895,/gps,1,6,40.2675108333,-111.635238167,1504.3,11.3831122222,5.0733230697,3.6864
1511903771915510871,3361,1511903771914418935,/gps,1,6,40.2675191667,-111.635263667,1503.7,12.0554911111,5.11398924127,3.6864
1511903772115070038,3362,1511903772114065885,/gps,1,6,40.2675275,-111.635292,1503.6,12.85288,5.12760280943,3.6864
1511903772313476444,3363,1511903772312601089,/gps,1,6,40.267536,-111.635320667,1503.7,12.5894844444,5.08798383541,3.6864
1511903772515511861,3364,1511903772514480113,/gps,1,6,40.2675435,-111.635348667,1504.0,12.1187677778,5.05970950153,3.6864
1511903772715325506,3365,1511903772714375019,/gps,1,6,40.2675488333,-111.6353775,1504.9,11.95466,4.99338698996,3.6864
1511903772915919986,3366,1511903772914931058,/gps,1,6,40.2675536667,-111.635403833,1505.6,10.8028188889,4.92322475403,3.6864
1511903773115064829,3367,1511903773114041090,/gps,1,6,40.2675558333,-111.635429667,1506.6,10.1685088889,4.79599025156,3.6864
1511903773315244569,3368,1511903773314178943,/gps,1,6,40.2675558333,-111.635453833,1507.7,9.50178888888,4.68725623916,3.6864
1511903773515711600,3369,1511903773514771938,/gps,1,6,40.2675538333,-111.635478,1508.9,9.33562333333,4.61307974595,3.6864
1511903773715498579,3370,1511903773714586973,/gps,1,6,40.2675525,-111.635498833,1509.4,8.76253222221,4.55234228798,3.6864
1511903773917827329,3371,1511903773915637016,/gps,1,6,40.2675498333,-111.63552,1510.0,8.85204555555,4.54640816852,3.6864
1511903774115112120,3372,1511903774113368988,/gps,1,6,40.267548,-111.635540667,1510.4,8.60459777777,4.59929164486,3.6864
1511903774316005141,3373,1511903774314265012,/gps,1,6,40.2675453333,-111.6355625,1511.1,8.39418999999,4.58445634621,3.6864
1511903774514547537,3374,1511903774513524055,/gps,1,6,40.2675435,-111.635584167,1511.6,9.00277777777,4.66421789303,3.6864
1511903774721842329,3375,1511903774720684051,/gps,1,7,40.2675428333,-111.635605,1511.8,8.46621222221,4.62983490677,3.4225
1511903774915059099,3376,1511903774914060115,/gps,1,7,40.2675423333,-111.635625167,1512.0,8.46363999999,4.67468986854,3.4225
1511903775115190401,3377,1511903775114202976,/gps,1,7,40.2675436667,-111.635645167,1512.1,8.64420999999,4.81483980748,3.4225
1511903775314460349,3378,1511903775313424110,/gps,1,7,40.2675456667,-111.635665667,1512.3,8.58453444444,4.80855662217,3.4225
1511903775514585922,3379,1511903775513624906,/gps,1,7,40.2675483333,-111.635685833,1512.6,8.25683333333,4.9265408796,3.4225
1511903775714625089,3380,1511903775713582038,/gps,1,7,40.2675521667,-111.6357055,1513.0,8.34788999999,5.04469966996,3.4225
1511903775914016599,3381,1511903775913252115,/gps,1,7,40.267558,-111.635723833,1513.4,7.93684888888,5.14994302386,3.4225
1511903776115222432,3382,1511903776113826036,/gps,1,7,40.2675638333,-111.6357405,1513.8,7.23617555555,5.16373112495,3.4225
1511903776313217276,3383,1511903776312313079,/gps,1,7,40.2675718333,-111.635755667,1514.2,7.73415777777,5.27543219708,3.4225
1511903776514571599,3384,1511903776513703107,/gps,1,7,40.2675806667,-111.635769667,1514.6,7.11888222222,5.36444398893,3.4225
1511903776714434828,3385,1511903776713556051,/gps,1,7,40.2675903333,-111.635781333,1514.9,6.76597333333,5.46270602582,3.4225
1511903776914312276,3386,1511903776913429975,/gps,1,7,40.2675995,-111.635791667,1515.3,6.40843444444,5.56829844556,3.4225
1511903777114854932,3387,1511903777114020109,/gps,1,7,40.2676091667,-111.635800667,1515.9,6.42849777777,5.72363274899,3.4225
1511903777314717223,3388,1511903777313807964,/gps,1,7,40.267619,-111.635807667,1516.3,5.97372888888,5.7978092422,3.4225
1511903777514551286,3389,1511903777513674020,/gps,1,7,40.2676286667,-111.635813167,1516.6,5.85283444444,5.90636872167,3.4225
1511903777713311650,3390,1511903777712311029,/gps,1,7,40.2676388333,-111.635816333,1516.9,5.80036111111,6.00881954877,3.4225
1511903777915934879,3391,1511903777914585113,/gps,1,7,40.2676491667,-111.635817833,1517.0,5.85283444444,6.11702996239,3.4225
1511903778115577848,3392,1511903778114495038,/gps,1,7,40.2676595,-111.635818333,1517.1,5.64036888888,6.20796161642,3.4225
1511903778314770504,3393,1511903778313302040,/gps,1,7,40.2676696667,-111.635819,1517.3,6.34618666666,6.2819635767,3.4225
1511903778514709515,3394,1511903778513300895,/gps,1,7,40.2676815,-111.635817333,1517.3,6.50566444444,0.052534410485,3.4225
1511903778715786598,3395,1511903778714750051,/gps,1,7,40.267693,-111.635815167,1517.3,6.56173888888,0.118333323285,3.4225
1511903778916685973,3396,1511903778914968013,/gps,1,7,40.267705,-111.635811333,1517.3,6.72687555555,0.19268434942,3.4225
1511903779114378421,3397,1511903779112375974,/gps,1,7,40.2677178333,-111.635805,1517.1,7.04737444444,0.265464579228,3.4225
1511903779316616181,3398,1511903779314883947,/gps,1,7,40.2677305,-111.635798333,1517.1,7.04531666666,0.322711378694,3.4225
1511903779514552379,3399,1511903779513381958,/gps,1,7,40.2677421667,-111.635791833,1517.3,7.22382888888,0.362155819789,3.4225
1511903779714222535,3400,1511903779713166952,/gps,1,7,40.267754,-111.635784,1517.4,6.90538777777,0.418180888778,3.4225
1511903779914245868,3401,1511903779912975072,/gps,1,7,40.2677646667,-111.635776,1517.6,6.70321111111,0.470540766338,3.4225
1511903780115286597,3402,1511903780114200115,/gps,1,7,40.2677748333,-111.6357675,1517.9,6.43106999999,0.524645973149,3.4225
1511903780314072014,3403,1511903780312943935,/gps,1,7,40.2677841667,-111.635759,1518.2,6.19493999999,0.57334065928,3.4225
1511903780513546701,3404,1511903780512526988,/gps,1,7,40.2677926667,-111.635750667,1518.6,6.09925333333,0.619591884458,3.4225
1511903780716029201,3405,1511903780714999914,/gps,1,7,40.2678005,-111.635742167,1519.0,5.93514555555,0.666017642561,3.4225
1511903780915818889,3406,1511903780914716005,/gps,1,7,40.2678086667,-111.6357325,1518.9,5.26688222222,0.709476340936,3.4225
1511903781115780087,3407,1511903781114669084,/gps,1,7,40.2678151667,-111.635723833,1519.2,5.50455555555,0.75293503931,3.4225
1511903781315889305,3408,1511903781314851045,/gps,1,7,40.2678218333,-111.635713833,1519.2,5.47111666666,0.833045651977,3.4225
1511903781515682638,3409,1511903781514899969,/gps,1,7,40.2678275,-111.635703,1519.2,6.10902777777,0.912981731718,3.4225
1511903781720493888,3410,1511903781719506025,/gps,1,7,40.2678326667,-111.635691333,1519.2,6.01128333333,0.974068255538,3.4225
1511903781911863263,3411,1511903781911087036,/gps,1,7,40.2678388333,-111.635677667,1518.8,6.88017999999,1.03847090494,3.4225
1511903782115078732,3412,1511903782114006042,/gps,1,7,40.2678436667,-111.6356625,1518.7,7.2310311111,1.1379546723,3.4225
1511903782314210503,3413,1511903782313456058,/gps,1,7,40.2678466667,-111.635646667,1518.8,7.52837999999,1.21911248252,3.4225
1511903782514566336,3414,1511903782513689994,/gps,1,7,40.2678493333,-111.635629833,1518.5,7.7820011111,1.33657314118,3.4225
1511903782714189721,3415,1511903782713118076,/gps,1,7,40.2678496667,-111.635613333,1518.6,7.61789333333,1.43082092078,3.4225
1511903782914197169,3416,1511903782913151025,/gps,1,7,40.267849,-111.6355965,1518.8,7.42651999999,1.52384696992,3.4225
1511903783114294669,3417,1511903783113426923,/gps,1,7,40.2678468333,-111.635580167,1518.9,7.22948777777,1.64095856273,3.4225
1511903783313016752,3418,1511903783312213897,/gps,1,7,40.2678428333,-111.635563667,1519.1,7.6940311111,1.76487693962,3.4225
1511903783515035242,3419,1511903783513881921,/gps,1,7,40.2678365,-111.635548333,1519.5,7.50831666666,1.91497525529,3.4225
1511903783721374981,3420,1511903783720277070,/gps,1,7,40.267829,-111.635534667,1519.9,7.08955888888,2.05111093694,3.4225
1511903783916241283,3421,1511903783914489984,/gps,1,7,40.2678208333,-111.635521333,1520.0,7.60503222222,2.19614779778,3.4225
1511903784116666700,3422,1511903784114826917,/gps,1,7,40.2678123333,-111.635509833,1519.9,7.66573666666,2.37207698639,3.4225
1511903784316781960,3423,1511903784314765930,/gps,1,7,40.2678013333,-111.635500167,1519.9,7.73724444444,2.48761778287,3.4225
1511903784513813106,3424,1511903784512972116,/gps,1,7,40.2677896667,-111.635492833,1519.8,7.66264999999,2.68134932984,3.4225
1511903784713114721,3425,1511903784712353944,/gps,1,7,40.2677758333,-111.635488333,1519.8,8.09015333333,2.9504791005,3.4225
1511903784914961075,3426,1511903784914005994,/gps,1,7,40.2677616667,-111.635486833,1519.9,7.70174777777,3.03128784486,3.4225
1511903785114931075,3427,1511903785114104032,/gps,1,7,40.2677485,-111.635488167,1519.8,7.47590666666,3.13897465971,3.4225
1511903785314172325,3428,1511903785313285112,/gps,1,7,40.2677356667,-111.635493,1519.5,7.75730777777,3.30321014232,3.4225
1511903785514438158,3429,1511903785513449907,/gps,1,7,40.2677235,-111.6355015,1519.4,7.77788555555,3.497639821,3.4225
1511903785716033731,3430,1511903785715234041,/gps,1,7,40.2677126667,-111.635513,1519.1,8.00989999999,3.88283398691,3.4225
1511903785916261699,3431,1511903785914951086,/gps,1,7,40.267704,-111.635527167,1518.9,7.88540444444,3.98703014326,3.4225
1511903786114920241,3432,1511903786113862037,/gps,1,7,40.267698,-111.6355425,1518.7,7.41880333333,4.13189247117,3.4225
1511903786315295397,3433,1511903786314148902,/gps,1,7,40.2676945,-111.635558667,1518.5,7.2171411111,4.30694899515,3.4225
1511903786516583053,3434,1511903786515324115,/gps,1,7,40.267693,-111.6355755,1518.5,7.11785333333,4.47205714239,3.4225
1511903786715782011,3435,1511903786714886903,/gps,1,7,40.2676931667,-111.6355925,1518.8,6.76031444444,4.67067561126,3.4225
1511903786914830241,3436,1511903786913969993,/gps,1,7,40.2676951667,-111.635609667,1519.3,7.09007333333,4.87435553497,3.4225
1511903787116163001,3437,1511903787115282058,/gps,1,7,40.2677001667,-111.635624,1519.2,6.17076111111,5.01345827635,3.4225
1511903787318477011,3438,1511903787317234039,/gps,1,7,40.2677058333,-111.635637333,1519.5,6.27313555555,5.2326716304,3.4225
1511903787515454824,3439,1511903787514442920,/gps,1,7,40.2677133333,-111.635648333,1519.7,6.11417222222,5.40807722023,3.4225
1511903787716091490,3440,1511903787715054035,/gps,1,7,40.267722,-111.635656667,1519.7,5.77669666666,5.6025068989,3.4225
1511903787916376282,3441,1511903787915277957,/gps,1,7,40.2677318333,-111.635662833,1519.8,6.20780111111,5.77511996192,3.4225
1511903788115226073,3442,1511903788114379882,/gps,1,7,40.267742,-111.635667,1519.8,5.61979111111,5.8871700999,3.4225
1511903788315876073,3443,1511903788314752101,/gps,1,7,40.2677526667,-111.635669667,1519.8,5.83842999999,5.98386134046,3.4225
1511903788515766073,3444,1511903788514707088,/gps,1,7,40.267763,-111.635671833,1519.8,5.65734555555,6.05541983979,3.4225
1511903788714924250,3445,1511903788714158058,/gps,1,7,40.2677733333,-111.635673,1519.8,5.82299666666,6.12069515382,3.4225
1511903788917629094,3446,1511903788915792942,/gps,1,7,40.267784,-111.635673833,1519.8,5.93463111111,6.17165876798,3.4225
1511903789116846177,3447,1511903789114880084,/gps,1,7,40.267795,-111.635674167,1519.8,5.92125555555,6.22401864554,3.4225
1511903789314658208,3448,1511903789313803911,/gps,1,7,40.267806,-111.6356735,1519.7,5.81785222222,6.27166613412,3.4225
1511903789514881125,3449,1511903789513789892,/gps,1,7,40.267817,-111.635671833,1519.5,5.29414777777,0.0193731546971,3.4225
1511903789715577583,3450,1511903789714499950,/gps,1,7,40.267828,-111.635669667,1519.4,6.14246666666,0.107163216072,3.4225
1511903789914621698,3451,1511903789913575887,/gps,1,7,40.2678388333,-111.635666333,1519.5,6.08639222222,0.179768912955,3.4225
1511903790114333469,3452,1511903790113405942,/gps,1,7,40.26785,-111.6356615,1519.4,6.31274777777,0.246789556232,3.4225
1511903790315315708,3453,1511903790314224958,/gps,1,7,40.2678611667,-111.635655833,1519.3,6.22529222222,0.296007841138,3.4225
1511903790515451958,3454,1511903790514372110,/gps,1,7,40.2678723333,-111.635648333,1519.0,6.41923777777,0.392524548774,3.4225
1511903790716321437,3455,1511903790715256929,/gps,1,7,40.2678815,-111.63564,1519.1,6.13320666666,0.518362787842,3.4225
1511903790915797791,3456,1511903790914767980,/gps,1,7,40.2678896667,-111.635629667,1519.0,6.43364222222,0.662876049907,3.4225
1511903791114901020,3457,1511903791113837003,/gps,1,7,40.2678966667,-111.6356175,1519.0,6.86834777777,0.803549587618,3.4225
1511903791315497270,3458,1511903791313965082,/gps,1,7,40.2679018333,-111.635604167,1519.2,6.89921444444,0.944572191179,3.4225
1511903791513561958,3459,1511903791512525081,/gps,1,7,40.2679055,-111.635589333,1519.3,7.24594999999,1.10374621896,3.4225
1511903791715998364,3460,1511903791715171098,/gps,1,7,40.2679078333,-111.635572667,1519.1,7.29687999999,1.2709487613,3.4225
1511903791915101853,3461,1511903791913896083,/gps,1,7,40.2679085,-111.635554333,1518.9,8.08037888888,1.52838482597,3.4225
1511903792115037947,3462,1511903792113986015,/gps,1,7,40.2679073333,-111.635535833,1518.9,7.78251555555,1.60291038503,3.4225
1511903792315016280,3463,1511903792313944101,/gps,1,7,40.267903,-111.635517833,1518.9,8.34583222222,1.93975893067,3.4225
1511903792515789041,3464,1511903792514676094,/gps,1,7,40.2678963333,-111.635500333,1518.8,8.20538888888,2.07153128919,3.4225
1511903792719820811,3465,1511903792718827962,/gps,1,7,40.2678871667,-111.635485333,1519.0,8.10455777777,2.26229577644,3.4225
1511903792912328051,3466,1511903792911539077,/gps,1,7,40.2678758333,-111.635472333,1519.1,8.36023666666,2.46667383184,3.4225
1511903793114463728,3467,1511903793113429069,/gps,1,7,40.2678626667,-111.6354625,1519.3,8.06494555555,2.67646240793,3.4225
1511903793314551436,3468,1511903793313628911,/gps,1,7,40.2678493333,-111.635455167,1519.4,7.89672222222,2.71835030998,3.4225
1511903793513345342,3469,1511903793512456893,/gps,1,7,40.2678348333,-111.635449833,1519.4,8.60305444444,2.93145501165,3.4225
1511903793714503832,3470,1511903793713712930,/gps,1,7,40.2678191667,-111.635449333,1519.5,8.55572555555,3.20739156639,3.4225
1511903793915597113,3471,1511903793913917064,/gps,1,7,40.2678051667,-111.635452,1519.4,7.93684888888,3.29012017293,3.4225
1511903794115706644,3472,1511903794113961935,/gps,1,7,40.2677918333,-111.635458833,1519.6,7.50934555555,3.4325390399,3.4225
1511903794311795759,3473,1511903794311006069,/gps,1,7,40.267782,-111.635466667,1519.2,7.20273666666,3.59328386401,3.4225
1511903794514142113,3474,1511903794513344049,/gps,1,7,40.2677726667,-111.635479,1519.4,7.13122888888,3.80621403275,3.4225
1511903794714483519,3475,1511903794713701009,/gps,1,7,40.2677661667,-111.6354925,1519.3,6.88995444444,3.99697851999,3.4225
1511903794914961071,3476,1511903794914124965,/gps,1,7,40.2677616667,-111.635507333,1519.2,6.85497222222,4.1971677852,3.4225
1511903795116562425,3477,1511903795115605115,/gps,1,7,40.2677593333,-111.635523333,1519.2,6.85342888888,4.41428674414,3.4225
1511903795315728310,3478,1511903795314810037,/gps,1,7,40.2677598333,-111.63554,1519.2,6.84468333333,4.65042979194,3.4225
1511903795514789039,3479,1511903795513838052,/gps,1,7,40.2677625,-111.635556667,1519.3,7.03091222222,4.86353449361,3.4225
1511903795713735706,3480,1511903795712622880,/gps,1,7,40.2677678333,-111.635571667,1519.2,6.89509888888,5.08868196711,3.4225
1511903795917558935,3481,1511903795916594028,/gps,1,7,40.267776,-111.635584,1519.1,6.87246333333,5.33756591845,3.4225
1511903796116494404,3482,1511903796115349054,/gps,1,7,40.2677863333,-111.635593167,1519.0,6.97586666666,5.604601294,3.4225
1511903796316093779,3483,1511903796315201044,/gps,1,7,40.2677973333,-111.6356005,1519.2,7.34112222222,5.83184316261,3.4225
1511903796515365289,3484,1511903796514575958,/gps,1,7,40.267811,-111.635603333,1519.0,7.64412999999,6.02644737421,3.4225
1511903796714863831,3485,1511903796713804006,/gps,1,7,40.2678241667,-111.6356025,1519.1,7.79331888888,6.25543457207,3.4225
1511903796914679247,3486,1511903796913603067,/gps,1,7,40.2678381667,-111.6355955,1519.0,8.84278555555,0.421846080207,3.4225
1511903797113242320,3487,1511903797112214088,/gps,1,7,40.2678488333,-111.635582667,1519.0,8.39470444444,0.867952237017,3.4225
1511903797315303310,3488,1511903797314270973,/gps,1,7,40.2678558333,-111.635566,1519.1,8.94207333333,1.12032684686,3.4225
1511903797515009664,3489,1511903797514082908,/gps,1,7,40.2678611667,-111.635546167,1519.0,9.10515222221,1.29590696961,3.4225
1511903797715144924,3490,1511903797714186906,/gps,1,7,40.2678638333,-111.6355255,1518.9,8.99608999999,1.46520390705,3.4225
1511903797914936330,3491,1511903797914182901,/gps,1,7,40.2678625,-111.6355035,1518.8,9.78627666666,1.73189021675,3.4225
1511903798115272059,3492,1511903798114332914,/gps,1,7,40.2678581667,-111.635481833,1518.9,9.38706777777,1.84394035473,3.4225
1511903798315611486,3493,1511903798314593076,/gps,1,7,40.267852,-111.635462,1518.9,9.62679888888,1.99037347897,3.4225
1511903798513644767,3494,1511903798512567996,/gps,1,7,40.2678448333,-111.635441667,1519.0,9.77341555555,1.97501458156,3.4225
1511903798715398622,3495,1511903798714346885,/gps,1,7,40.2678396667,-111.635420167,1518.9,9.36237444444,1.90659767488,3.4225
1511903798915672996,3496,1511903798913938045,/gps,1,7,40.2678341667,-111.635398833,1519.0,9.72762999999,1.89769649569,3.4225
1511903799115509403,3497,1511903799113404035,/gps,1,7,40.267829,-111.6353765,1519.0,9.82743222221,1.87221468861,3.4225
1511903799314255392,3498,1511903799313446998,/gps,1,7,40.2678238333,-111.635354333,1519.3,9.92363333332,1.85039807296,3.4225
1511903799514144090,3499,1511903799513173103,/gps,1,7,40.2678195,-111.635332167,1519.7,9.31658888888,1.82962865487,3.4225
1511903799714113517,3500,1511903799713327884,/gps,1,7,40.2678156667,-111.635311333,1520.3,8.61025666666,1.80449591364,3.4225
1511903799912227215,3501,1511903799911156892,/gps,1,7,40.2678128333,-111.635293,1520.9,7.17855777777,1.78110850166,3.4225
1511903800113911017,3502,1511903800112797021,/gps,1,7,40.2678106667,-111.635277667,1521.7,6.38168333333,1.75754655676,3.4225
1511903800313479090,3503,1511903800312412023,/gps,1,7,40.2678096667,-111.635264667,1522.4,4.97159111111,1.70571027797,3.4225
1511903800513488204,3504,1511903800512428998,/gps,1,7,40.2678093333,-111.6352535,1522.9,4.65006333333,1.7107717328,3.4225
1511903800713564558,3505,1511903800712781906,/gps,1,7,40.2678083333,-111.635243167,1523.4,4.39026888889,1.73607900696,3.4225
1511903800913845652,3506,1511903800912661075,/gps,1,7,40.267807,-111.635233833,1523.6,4.05588,1.7910568784,3.4225
1511903801113664141,3507,1511903801112588882,/gps,1,7,40.2678055,-111.635225333,1523.7,3.78425333333,1.80013259051,3.4225
1511903801313847996,3508,1511903801312859058,/gps,1,7,40.2678038333,-111.635216667,1523.7,4.07800111111,1.85074713881,3.4225
1511903801514243308,3509,1511903801513174057,/gps,1,7,40.267802,-111.635207333,1523.3,4.11761333333,1.90101262127,3.4225
1511903801714204922,3510,1511903801713291883,/gps,1,7,40.2677981667,-111.635198167,1523.1,4.94586888888,1.97728350958,3.4225
1511903801914785079,3511,1511903801914009094,/gps,1,7,40.2677938333,-111.635187667,1522.4,5.21286555555,2.0577431881,3.4225
1511903802113895651,3512,1511903802113001108,/gps,1,7,40.2677881667,-111.635175833,1521.6,6.27313555555,2.09474416824,3.4225
1511903802314102110,3513,1511903802313247919,/gps,1,7,40.2677815,-111.635162333,1520.7,7.19604888888,2.17904357111,3.4225
1511903802514227839,3514,1511903802513230085,/gps,1,7,40.267773,-111.635147167,1519.8,8.58144777777,2.2322761133,3.4225
1511903802714356485,3515,1511903802713464021,/gps,1,7,40.2677625,-111.635129167,1519.2,10.3974366667,2.16595360172,3.4225
1511903802915083568,3516,1511903802914201021,/gps,1,7,40.267752,-111.635107833,1518.8,10.9890477778,2.12755635818,3.4225
1511903803113933932,3517,1511903803112886905,/gps,1,7,40.2677413333,-111.635087167,1518.9,10.5183311111,2.19352980391,3.4225
1511903803314254974,3518,1511903803313361883,/gps,1,7,40.2677306667,-111.6350685,1519.2,9.56763777777,2.25409272895,3.4225
1511903803513691588,3519,1511903803512715101,/gps,1,7,40.2677188333,-111.635053167,1519.7,9.01049444444,2.41326675673,3.4225
1511903803715091328,3520,1511903803714199066,/gps,1,7,40.2677061667,-111.635040833,1520.1,8.78722555555,2.59006860996,3.4225
1511903803914369297,3521,1511903803912756919,/gps,1,7,40.2676935,-111.635031333,1520.4,7.93581999999,2.72166643556,3.4225
1511903804114937369,3522,1511903804113285064,/gps,1,7,40.2676816667,-111.635025167,1520.6,6.97586666666,2.8036969104,3.4225
1511903804315807005,3523,1511903804314054965,/gps,1,7,40.267669,-111.6350225,1520.7,7.88077444444,2.95135176512,3.4225
1511903804516062109,3524,1511903804515239000,/gps,1,7,40.2676551667,-111.635023,1520.8,8.03047777777,3.24613787578,3.4225
1511903804714924921,3525,1511903804714123010,/gps,1,7,40.2676406667,-111.635027,1520.9,8.21567777777,3.41438761568,3.4225
1511903804914840025,3526,1511903804913822889,/gps,1,7,40.2676265,-111.635033667,1520.9,8.4857611111,3.54005132182,3.4225
1511903805116151692,3527,1511903805115096092,/gps,1,7,40.2676138333,-111.635041833,1520.5,8.5366911111,3.71091905559,3.4225
1511903805311247994,3528,1511903805310163021,/gps,1,6,40.2676021667,-111.6350535,1520.3,8.38801666666,3.85717764691,4.4944
1511903805512859556,3529,1511903805511555910,/gps,1,6,40.2675923333,-111.6350685,1520.2,8.53257555555,4.08721204232,4.4944
1511903805713291223,3530,1511903805712307929,/gps,1,6,40.267584,-111.635085333,1520.1,8.57784666666,4.13049620777,4.4944
